{"source": "Afgreiðslufundir byggingarfulltrúa Reykjavíkur", "sourceUrl": "https://reykjavik.is/byggingarmal/fundargerdir-byggingarfulltrua", "disclaimer": "Byggt á opinberum fundargerðum byggingarfulltrúa Reykjavíkur (afgreiðslur skv. mannvirkjalögum nr. 160/2010). Lyklað á heimilisfang — hvorki kennitölur, nöfn né aðrar persónuupplýsingar umsækjenda eru geymdar eða birtar. Aðeins Reykjavík; endurbirting getur verið háð skilyrðum.", "generated": "2026-07-15", "decisionLabels": {"samthykkt": "Samþykkt", "jakvaett": "Jákvæð afgreiðsla", "synjad": "Synjað", "neikvaett": "Neikvæð afgreiðsla", "frestad": "Frestað", "visad_fra": "Vísað frá", "afturkallad": "Afturkallað", "afgreitt": "Afgreitt", "annad": "Annað"}, "decisionSeverity": {"samthykkt": 2, "jakvaett": 2, "synjad": -1, "neikvaett": -1, "frestad": 0, "visad_fra": -1, "afturkallad": 0, "afgreitt": 1, "annad": 0}, "counts": {"addresses": 3198, "permits": 14489, "meetings": 272, "geocoded": 2929}, "byDecision": {"samthykkt": 4444, "frestad": 9566, "annad": 45, "synjad": 118, "afgreitt": 222, "afturkallad": 5, "neikvaett": 62, "jakvaett": 26, "visad_fra": 1}, "byHverfi": {"Þingholt": 1838, "Vesturbær": 785, "Miðbær": 664, "Úlfarsárdalur": 628, "Mýrar og Múlar": 611, "Gerði": 569, "Holt": 526, "Tún": 417, "Höfðar": 389, "Hlíðar": 388, "Hálsar": 385, "Sundahöfn": 364, "Fossvogur": 336, "Teigar": 299, "Vogar": 295, "Skuggahverfi": 278, "Laugarás": 239, "Örfirisey": 226, "Skeifan": 222, "Melar": 211}, "latestFund": 1264, "latestDate": "2026-07-01", "meetings": {"1256": {"url": "https://reykjavik.is/sites/default/files/2026-05/Afgrei%C3%B0slufundur%20byggingarfulltr%C3%BAa%2012.%20ma%C3%AD%202026.pdf", "date": "2026-05-12"}, "1257": {"url": "https://reykjavik.is/sites/default/files/2026-05/Afgrei%C3%B0slufundur%20byggingarfulltr%C3%BAa%2019.%20ma%C3%AD%202026.pdf", "date": "2026-05-19"}, "1258": {"url": "https://reykjavik.is/sites/default/files/2026-05/Afgrei%C3%B0slufundur%20byggingarfulltr%C3%BAa%2027.%20ma%C3%AD%202026.pdf", "date": "2026-05-27"}, "1259": {"url": "https://reykjavik.is/sites/default/files/2026-06/Afgrei%C3%B0sla%20byggingarfulltr%C3%BAa%20%C3%BEri%C3%B0judaginn%2002.%20j%C3%BAn%C3%AD%202026%20nr.%201259_1.pdf", "date": "2026-06-02"}, "1260": {"url": "https://reykjavik.is/sites/default/files/2026-06/Fundarger%C3%B0%20afgrei%C3%B0slufundar%20byggingarfulltr%C3%BAa%209.%20j%C3%BAn%C3%AD%202026_0.pdf", "date": "2026-06-09"}, "1261": {"url": "https://reykjavik.is/sites/default/files/2026-06/Fundarger%C3%B0_afgrei%C3%B0slufundar_byggingarfulltr%C3%BAa_16._j%C3%BAn%C3%AD_2026.pdf", "date": "2026-06-16"}, "1262": {"url": "https://reykjavik.is/sites/default/files/2026-06/Afgrei%C3%B0slufundur%20byggingarfulltr%C3%BAa%2023.%20j%C3%BAn%C3%AD%202026_3.pdf", "date": "2026-06-23"}, "1263": {"url": "https://reykjavik.is/sites/default/files/2026-07/Fundarger%C3%B0%20Byggingarfulltr%C3%BAi%20RVK%20Scriban%20-%20Jan%C3%BAar%202025%20%284%29.pdf", "date": "2026-06-30"}, "1264": {"url": "https://reykjavik.is/sites/default/files/2026-07/Fundarger%C3%B0%20afgrei%C3%B0slufundar%20byggingarfulltr%C3%BAa%207.%20j%C3%BAl%C3%AD%202026.pdf", "date": "2026-07-01"}}, "recent": [{"addr": "Álftamýri 79", "postnr": 108, "hverfi": "Mýrar og Múlar", "lat": 64.1347, "lng": -21.8932, "caseNo": "USK26060065", "fnr": null, "desc": "skipta út eldvarnarhurðum að skólastofum Álftamýraraskóla, mhl.01, á lóð nr. 79 við Álftamýri", "decisionCode": "samthykkt", "date": "2026-07-01", "fund": 1264, "sizeM2": null, "sizeM3": null}, {"addr": "Ánanaust 8", "postnr": 101, "hverfi": "Vesturbær", "lat": 64.15327, "lng": -21.95408, "caseNo": "USK25050205", "fnr": null, "desc": "byggja úr fjórum samsettum gámaeiningum starfsmannahús, mhl.01, á lóð nr. 8 við Ánanaust. Jafnframt er erindi USK24010259 fellt úr gildi", "decisionCode": "samthykkt", "date": "2026-07-01", "fund": 1264, "sizeM2": 59.2, "sizeM3": 181.7}, {"addr": "Bankastræti 7A", "postnr": 101, "hverfi": "Þingholt", "lat": 64.14681, "lng": -21.93368, "caseNo": "USK26020457", "fnr": null, "desc": "rífa og endurbyggja efstu hæð húss, sem snýr að því að hækka hana, breyta gluggum og breyta innra skipulagi á öllum hæðum í húsi á lóð nr. 7A við Bankastræti", "decisionCode": "frestad", "date": "2026-07-01", "fund": 1264, "sizeM2": null, "sizeM3": null}, {"addr": "Barónsstígur 59", "postnr": 101, "hverfi": "Þingholt", "lat": 64.14044, "lng": -21.92511, "caseNo": "USK26050045", "fnr": null, "desc": "leyfi til þess að rífa steyptar svalir og byggja nýjar stærri svalir í staðinn úr timbri og áli á austurhlið íbúðarhúss, auk þess að koma fyrir þremur bílastæðum með innkeyrslu frá Leifsgötu á norðanverðri lóð nr. 59 við við Barónsstíg", "decisionCode": "frestad", "date": "2026-07-01", "fund": 1264, "sizeM2": null, "sizeM3": null}, {"addr": "Brautarholt 32", "postnr": 105, "hverfi": "Holt", "lat": 64.1409, "lng": -21.90212, "caseNo": "USK26050485", "fnr": null, "desc": "byggja 5- hæða fjölbýlishús fyrir 20 íbúðir auk bílakjallara með 16 bílastæðum á lóð nr. 32 við Brautarholt", "decisionCode": "frestad", "date": "2026-07-01", "fund": 1264, "sizeM2": null, "sizeM3": null}, {"addr": "Brautarholt 4-4A", "postnr": 105, "hverfi": "Holt", "lat": 64.14176, "lng": -21.91053, "caseNo": "USK26060212", "fnr": null, "desc": "breyta erindi USK24060206, Flóttaleið skilgreind í tvær áttir frá herbergjagangi á jarðhæð í stað svalahurða úr gistiherbergjum í hótelbyggingu á lóð nr. 4 við Brautarholt", "decisionCode": "samthykkt", "date": "2026-07-01", "fund": 1264, "sizeM2": null, "sizeM3": null}, {"addr": "Brúarvogur 1-3", "postnr": 104, "hverfi": "Sundahöfn", "lat": 64.13569, "lng": -21.84395, "caseNo": "USK26060183", "fnr": null, "desc": "breyta innra skipulagi, fjarlægja millipall, gera 467 fermm. úrtak í gólfplötu á þriðju hæð ásamt þessu er sótt um að byggja 49 fermm. anddyri austanmegin, skipta út 3 gluggum í iðnaðarhurðir í verslunarhúsi á lóð nr. 1-3 við Brúarvog", "decisionCode": "frestad", "date": "2026-07-01", "fund": 1264, "sizeM2": null, "sizeM3": null}, {"addr": "Dunhagi 5", "postnr": 107, "hverfi": "Hagar", "lat": 64.13951, "lng": -21.95522, "caseNo": "USK26060256", "fnr": null, "desc": "byggja reiðhjólaskýli mhl 13 á lóð nr. 5 við Dunhaga", "decisionCode": "frestad", "date": "2026-07-01", "fund": 1264, "sizeM2": null, "sizeM3": null}, {"addr": "Efstasund 59", "postnr": 104, "hverfi": "Sund", "lat": 64.13997, "lng": -21.85843, "caseNo": "USK26040094", "fnr": null, "desc": "breyta erindi USK25050301 þannig að innra skipulagi er breytt lítillega, bílskúr er stækkaður um meter til austurs og svalir stækkaðar á einbýlishúsi á lóð nr. 59 við Efstasund", "decisionCode": "samthykkt", "date": "2026-07-01", "fund": 1264, "sizeM2": 94.5, "sizeM3": 318.8}, {"addr": "Fiskislóð 15-21", "postnr": 101, "hverfi": "Örfirisey", "lat": 64.15537, "lng": -21.94986, "caseNo": "USK26060227", "fnr": null, "desc": null, "decisionCode": "frestad", "date": "2026-07-01", "fund": 1264, "sizeM2": null, "sizeM3": null}, {"addr": "Fossagata 11", "postnr": 102, "hverfi": "Litli Skerjafjörður", "lat": 64.13377, "lng": -21.94922, "caseNo": "USK26060412", "fnr": null, "desc": "stöðuleyfi fyrir 15 ferm hýsi til 12 mánaða á lóð nr. 11 við Fossagötu", "decisionCode": "frestad", "date": "2026-07-01", "fund": 1264, "sizeM2": null, "sizeM3": null}, {"addr": "Frakkastígur 1", "postnr": 101, "hverfi": "Skuggahverfi", "lat": 64.14647, "lng": -21.92277, "caseNo": "USK26060210", "fnr": null, "desc": "breyta klæðningu, handriðum á svölum, formi sorpgeymslu ásamt því er tæknirými Veitna komið fyrir innan lóðar, brunavarnartexti uppfærður", "decisionCode": "frestad", "date": "2026-07-01", "fund": 1264, "sizeM2": null, "sizeM3": null}, {"addr": "Frostaskjól 2", "postnr": 107, "hverfi": "Skjól", "lat": 64.14628, "lng": -21.96867, "caseNo": "USK26020416", "fnr": null, "desc": "leyfi fyrir tveggja hæða stálgrindar íþróttahúsi mhl. 02 á lóð nr. 2 við Frostaskjól. Stærð 7.457,8 ferm. og 68.007,8 rúmm", "decisionCode": "frestad", "date": "2026-07-01", "fund": 1264, "sizeM2": null, "sizeM3": null}, {"addr": "Fálkabakki 1", "postnr": 109, "hverfi": "Stekkir", "lat": 64.11068, "lng": -21.82603, "caseNo": "USK26050004", "fnr": null, "desc": null, "decisionCode": "frestad", "date": "2026-07-01", "fund": 1264, "sizeM2": null, "sizeM3": null}, {"addr": "Hlésgata 2", "postnr": 101, "hverfi": "Vesturhöfn", "lat": 64.15181, "lng": -21.94726, "caseNo": "USK25120059", "fnr": null, "desc": "byggja steinsteypt 3-4 hæða fjölbýlishús með 67 íbúðum á bílakjallara með 31 bílastæði á lóð nr. 2 við Hlésgötu", "decisionCode": "frestad", "date": "2026-07-01", "fund": 1264, "sizeM2": null, "sizeM3": null}, {"addr": "Hlíðarhús 3-5", "postnr": 112, "hverfi": "Hús", "lat": 64.13791, "lng": -21.7785, "caseNo": "USK26050361", "fnr": null, "desc": "breyta innan- og utan húss. Breytt gluggasetning utanhúss, nýtt þvottahús, móttökueldhús fært til í miðrými og stækkun á sameiginlegu baðherbergi heimilsfólks á 1.hæð í mhl 02 í hjúkrunarheimili Eir á lóð nr. 3-5 við Hlíðarhús", "decisionCode": "frestad", "date": "2026-07-01", "fund": 1264, "sizeM2": null, "sizeM3": null}, {"addr": "Hraunberg 4", "postnr": 111, "hverfi": "Berg", "lat": 64.10523, "lng": -21.81545, "caseNo": "USK26060063", "fnr": null, "desc": "leyfi fyrir fækkun eigna og áður gerðum breytingum sem felast í að rými 0206, 0207, 0208 og 0210 hafa verið sameinuð og innréttuð sem skrifstofur í rými 0206 í verslunar-skrifstofu- og íbúðarhúsi á lóð nr. 4 við Hraunberg", "decisionCode": "frestad", "date": "2026-07-01", "fund": 1264, "sizeM2": null, "sizeM3": null}, {"addr": "Hraunbær 102", "postnr": 110, "hverfi": "Árbær", "lat": 64.11776, "lng": -21.79737, "caseNo": "USK26050359", "fnr": null, "desc": "breyta innra skipulagi og innrétta veitingastað í flokki II,tegund A í stað bensínstöðvar, mhl03, í verslunarhúsi á lóð nr. 102 við Hraunbæ", "decisionCode": "frestad", "date": "2026-07-01", "fund": 1264, "sizeM2": null, "sizeM3": null}, {"addr": "Hraunbær 119", "postnr": 110, "hverfi": "Árbær", "lat": 64.1182, "lng": -21.79666, "caseNo": "USK26050227", "fnr": null, "desc": "breyta innra skipulagi og stækka hárgreiðslustofu með því að sameina rými 0102 og 0103 í verslunarhúsi á lóð nr. 119 við Hraunbæ", "decisionCode": "frestad", "date": "2026-07-01", "fund": 1264, "sizeM2": null, "sizeM3": null}, {"addr": "Hrísrimi 15", "postnr": 112, "hverfi": "Rimar", "lat": 64.14406, "lng": -21.79478, "caseNo": "USK26050310", "fnr": null, "desc": "breyta bílageymslu í herbergi og setja nýtt baðherbergi í hluta af geymslu sem verður aðgengilegt frá íbúðarrými i hús á lóð nr. 15 við Hrísrima", "decisionCode": "samthykkt", "date": "2026-07-01", "fund": 1264, "sizeM2": null, "sizeM3": null}, {"addr": "Hverafold 5", "postnr": 112, "hverfi": "Foldir", "lat": 64.13413, "lng": -21.79834, "caseNo": "USK26060184", "fnr": null, "desc": "leyfi fyrir áður gerðum breytingum í veitingastað í rými 0101 og 0102 í mhl 01. Ásamt því er sótt um leyfi fyrir borðum og stólum á útisvæði við atvinnuhús á lóð nr. 5 við Hverafold", "decisionCode": "frestad", "date": "2026-07-01", "fund": 1264, "sizeM2": null, "sizeM3": null}, {"addr": "Háaleitisbraut 68", "postnr": 103, "hverfi": "Leiti", "lat": 64.12816, "lng": -21.8874, "caseNo": "USK26060017", "fnr": null, "desc": "breyta innra skipulagi og innrétta læknastöð í kjallara, 1. og 2. hæð og koma fyrir hurð á suðurhlið skrifstofuhúss á lóð nr. 68 við Háaleitisbraut", "decisionCode": "frestad", "date": "2026-07-01", "fund": 1264, "sizeM2": null, "sizeM3": null}, {"addr": "Hólmgarður 45", "postnr": 108, "hverfi": "Gerði", "lat": 64.12299, "lng": -21.87003, "caseNo": "USK26040138", "fnr": null, "desc": "hækka þak og byggja kvisti á fjölbýlishús á lóð nr. 45 við Hólmgarð", "decisionCode": "samthykkt", "date": "2026-07-01", "fund": 1264, "sizeM2": 48.3, "sizeM3": 119.8}, {"addr": "Kirkjutorg 4", "postnr": 101, "hverfi": "Miðbær", "lat": 64.14636, "lng": -21.93944, "caseNo": "USK26060037", "fnr": null, "desc": "breyta flokki gististaðar úr flokki II, tegund b í flokk IV, tegund b, fyrir 84 gesti í húsi á lóð nr. 4 við Kirkjutorg og nr.3 við Templarasund. Einungis er sótt um breytingu á flokkun gististaðar", "decisionCode": "frestad", "date": "2026-07-01", "fund": 1264, "sizeM2": null, "sizeM3": null}, {"addr": "Kringlan 4-12", "postnr": null, "hverfi": null, "lat": null, "lng": null, "caseNo": "USK26050184", "fnr": null, "desc": "sameina notkunareiningar S-272, S-274 og S-276, breyta innra skipulagi og innrétta verslun, á 2. hæð í suðurhluta verslunarmiðstöðvarinnar Kringlunnar, mhl.02, á lóð nr. 4-12 við Kringluna", "decisionCode": "samthykkt", "date": "2026-07-01", "fund": 1264, "sizeM2": null, "sizeM3": null}, {"addr": "Laufásvegur 18", "postnr": 101, "hverfi": "Þingholt", "lat": 64.14395, "lng": -21.93801, "caseNo": "USK26020044", "fnr": null, "desc": "endurnýja þak, setja kvist á götuhlið, hækka þak að garðhlið og bæta við svölum á 3.hæð í fjölbýlishúsi á lóð nr. 18 við Laufásveg", "decisionCode": "frestad", "date": "2026-07-01", "fund": 1264, "sizeM2": null, "sizeM3": null}, {"addr": "Laugarnesvegur 91", "postnr": 105, "hverfi": "Lækir", "lat": 64.1506, "lng": -21.88448, "caseNo": "USK25070326", "fnr": null, "desc": "breyta innra skipulagi þannig að flóttaleiðum frá kennslurýmum á jarðhæð og samkomusal á 1. hæð er breytt í Listaháskóla Íslands á lóð nr. 91 við Laugarnesveg", "decisionCode": "frestad", "date": "2026-07-01", "fund": 1264, "sizeM2": null, "sizeM3": null}, {"addr": "Laugavegur 143", "postnr": 105, "hverfi": "Tún", "lat": 64.14317, "lng": -21.91063, "caseNo": "USK26020452", "fnr": null, "desc": "leyfi fyrir áður gerðum breytingum á innra skipulagi og til að koma fyrir þremur bílastæðum við fjölbýlishúss á lóð nr. 143 við Laugaveg", "decisionCode": "annad", "date": "2026-07-01", "fund": 1264, "sizeM2": null, "sizeM3": null}, {"addr": "Laugavegur 176", "postnr": 105, "hverfi": "Holt", "lat": 64.1408, "lng": -21.89833, "caseNo": "USK26060279", "fnr": null, "desc": "breyta innra skipulagi vegna brunaskilgreininga og öryggisúttektar, ásamt því er sótt um breytingu á skiltum á norður- og austurhlið hótels á lóð nr. 176 við Laugaveg", "decisionCode": "frestad", "date": "2026-07-01", "fund": 1264, "sizeM2": null, "sizeM3": null}, {"addr": "Laugavegur 51", "postnr": 101, "hverfi": "Þingholt", "lat": 64.14478, "lng": -21.92394, "caseNo": "USK26060064", "fnr": null, "desc": "breyta innra skipulagi rýmis 0102 og innrétta veitingastað í flokki II, tegund A fyrir 49 gesti, fjölga salernum og fjarlægja hringstiga á milli hæða í verslunar- og íbúðarhúsi á lóð nr. 51 við Laugaveg", "decisionCode": "frestad", "date": "2026-07-01", "fund": 1264, "sizeM2": null, "sizeM3": null}, {"addr": "Laugavegur 53B", "postnr": 101, "hverfi": "Þingholt", "lat": 64.14471, "lng": -21.92339, "caseNo": "USK25020339", "fnr": null, "desc": "breyta erindi BN020175 vegna lokaúttektar með því að opna á milli lóða 53b og 55 í bílakjallara, útistigi fjarlægður, sameina tvö íbúðarrými í eitt, ýmsar innanhússbreytingar og útidyrahurð fjarlægð í húsi nr. 53B við Laugaveg", "decisionCode": "frestad", "date": "2026-07-01", "fund": 1264, "sizeM2": null, "sizeM3": null}, {"addr": "Lágholtsvegur 13", "postnr": 107, "hverfi": "Grandar", "lat": 64.15007, "lng": -21.9612, "caseNo": "USK25120305", "fnr": null, "desc": "byggja glerskála við suðvesturhlið einbýlishúss á lóð nr. 13 við Lágholtsveg", "decisionCode": "frestad", "date": "2026-07-01", "fund": 1264, "sizeM2": 15.8, "sizeM3": 45.0}, {"addr": "Lækjargata 4", "postnr": 101, "hverfi": "Miðbær", "lat": 64.14688, "lng": -21.93739, "caseNo": "USK26050049", "fnr": null, "desc": "breyta innra skipulagi og innrétta framleiðslueldhús í kjallara og veitingastað í fl. II, teg. e á 1. hæð, og til að koma fyrir afgreiðslulúgu á bakhlið húss á lóð nr. 4 við Lækjargötu", "decisionCode": "frestad", "date": "2026-07-01", "fund": 1264, "sizeM2": null, "sizeM3": null}, {"addr": "Pósthússtræti 2", "postnr": 101, "hverfi": "Miðbær", "lat": 64.14821, "lng": -21.93854, "caseNo": "USK26060182", "fnr": null, "desc": "breyta innra skipulagi í veitingastað og barrými á 1.hæð, mhl 01, veitingastaður í flokki II, tegund A fyrir 80 gesti. Ásamt því er sótt um að opna aftur fyrir upprunalega hurð að Hafnarstræti", "decisionCode": "frestad", "date": "2026-07-01", "fund": 1264, "sizeM2": null, "sizeM3": null}, {"addr": "Samtún 6", "postnr": 105, "hverfi": "Tún", "lat": 64.14472, "lng": -21.90558, "caseNo": "USK26060499", "fnr": null, "desc": null, "decisionCode": "frestad", "date": "2026-07-01", "fund": 1264, "sizeM2": null, "sizeM3": null}, {"addr": "Sigtún 42", "postnr": 105, "hverfi": "Teigar", "lat": 64.14171, "lng": -21.88731, "caseNo": "USK26060209", "fnr": null, "desc": "breyta innra skipulagi á 2.hæð í skrifstofuhúsi á lóð nr. 42 við Sigtún", "decisionCode": "frestad", "date": "2026-07-01", "fund": 1264, "sizeM2": null, "sizeM3": null}, {"addr": "Skeifan 11C", "postnr": 108, "hverfi": "Skeifan", "lat": 64.13076, "lng": -21.86843, "caseNo": "USK26040255", "fnr": null, "desc": "breyta erindi USK25090130 þannig að innra skipulagi skyndibitastaðar, veitingastað í flokki l tegund c fyrir mest 20 gesti er breytt í rými 0102 á 1. hæð í verslunar- og skrifstofuhúsi, mhl.03, á lóð nr. 11c við Skeifuna", "decisionCode": "samthykkt", "date": "2026-07-01", "fund": 1264, "sizeM2": null, "sizeM3": null}, {"addr": "Skólavörðustígur 9", "postnr": 101, "hverfi": "Þingholt", "lat": 64.14552, "lng": -21.93149, "caseNo": "USK26030117", "fnr": null, "desc": "breyta erindi USK2406006 þannig að kjallari er stækkaður og innra skipulagi, anddyri og flóttaleiðum breytt í nýbyggingu, mhl.02, á lóð nr. 9 við Skólavörðustíg", "decisionCode": "frestad", "date": "2026-07-01", "fund": 1264, "sizeM2": null, "sizeM3": null}, {"addr": "Skúlagata 28", "postnr": 101, "hverfi": "Skuggahverfi", "lat": 64.14546, "lng": -21.91945, "caseNo": "USK26060084", "fnr": null, "desc": "innrétta keilusal í áður óráðstöfuðu rými innaf 0101, þar er fyrir starfrækt gistiheimili og veitingasala í húsi á lóð nr. 28 við Skúlagötu", "decisionCode": "frestad", "date": "2026-07-01", "fund": 1264, "sizeM2": null, "sizeM3": null}, {"addr": "Stjörnugróf 9 (18.9--.99)", "postnr": 108, "hverfi": "Fossvogur", "lat": 64.11858, "lng": -21.85046, "caseNo": "USK26020186", "fnr": null, "desc": "breyta að reisa gróðurhús ásamt pökkunaraðstöðu og starfsmannarýmum, mhl.03, á lóð nr. 9 við Stjörnugróf", "decisionCode": "samthykkt", "date": "2026-07-01", "fund": 1264, "sizeM2": 521.8, "sizeM3": null}, {"addr": "Suðurhólar 21", "postnr": 111, "hverfi": "Hólar", "lat": 64.10812, "lng": -21.81626, "caseNo": "USK26060387", "fnr": null, "desc": "leyfi til þess að reisa tímabundnar kennslustofur úr færanlegum húseiningum á lóð nr.21 við Suðurhóla", "decisionCode": "samthykkt", "date": "2026-07-01", "fund": 1264, "sizeM2": null, "sizeM3": null}, {"addr": "Sæmundargata 2", "postnr": 102, "hverfi": "Háskóli", "lat": 64.14052, "lng": -21.9493, "caseNo": "USK26060255", "fnr": null, "desc": "byggja hjólaskýli mhl 16 á lóð nr. 2 við Sæmundargötu", "decisionCode": "frestad", "date": "2026-07-01", "fund": 1264, "sizeM2": null, "sizeM3": null}, {"addr": "Sóleyjargata 27", "postnr": 101, "hverfi": "Þingholt", "lat": 64.13968, "lng": -21.93704, "caseNo": "USK25060237", "fnr": null, "desc": null, "decisionCode": "samthykkt", "date": "2026-07-01", "fund": 1264, "sizeM2": null, "sizeM3": null}, {"addr": "Tryggvagata 17", "postnr": 101, "hverfi": "Miðbær", "lat": 64.14906, "lng": -21.94047, "caseNo": "USK26050460", "fnr": null, "desc": null, "decisionCode": "frestad", "date": "2026-07-01", "fund": 1264, "sizeM2": null, "sizeM3": null}, {"addr": "Undraland 1", "postnr": null, "hverfi": null, "lat": null, "lng": null, "caseNo": "USK26060478", "fnr": null, "desc": "breyta erindi USK24020052 vegna lokaúttektar þannig að innra skipulagi er breytt í íbúðarhúsi á lóð nr. 1 við Undraland", "decisionCode": "frestad", "date": "2026-07-01", "fund": 1264, "sizeM2": null, "sizeM3": null}, {"addr": "Vagnhöfði 5", "postnr": 110, "hverfi": "Höfðar", "lat": 64.12659, "lng": -21.81931, "caseNo": "USK26050315", "fnr": null, "desc": "bæta brunavarnir og flóttaleiðir, breyta innra skipulagi og útliti iðnaðar- og skrifstofuhúss á lóð nr. 5 við Vagnhöfða", "decisionCode": "frestad", "date": "2026-07-01", "fund": 1264, "sizeM2": null, "sizeM3": null}, {"addr": "Vesturgata 3", "postnr": 101, "hverfi": "Miðbær", "lat": 64.1488, "lng": -21.94213, "caseNo": "USK26050337", "fnr": null, "desc": "breyta innra skipulagi í kjallara og á fyrstu hæð í veitingastað í flokki ll, fyrir 155 gesti í rými 0101, mhl. 01, í veitinga- og íbúðarhúsi, á lóð nr. 3 við Vesturgötu", "decisionCode": "frestad", "date": "2026-07-01", "fund": 1264, "sizeM2": null, "sizeM3": null}, {"addr": "Ánanaust 8", "postnr": 101, "hverfi": "Vesturbær", "lat": 64.15327, "lng": -21.95408, "caseNo": "USK25050205", "fnr": null, "desc": "byggja, úr fjórum samsettum gámaeiningum, starfsmannahús, mhl.01, á lóð nr 8 við Ánanaust. Jafnframt er erindi USK24010259 fellt úr gildi", "decisionCode": "frestad", "date": "2026-06-30", "fund": 1263, "sizeM2": 59.2, "sizeM3": 181.7}, {"addr": "Ánanaust 8", "postnr": 101, "hverfi": "Vesturbær", "lat": 64.15327, "lng": -21.95408, "caseNo": "USK26060364", "fnr": null, "desc": "rífa núverandi starfsmannahús, mhl.01, á lóð nr 8 við Ánanaust", "decisionCode": "samthykkt", "date": "2026-06-30", "fund": 1263, "sizeM2": 42.1, "sizeM3": 117.9}, {"addr": "Fálkabakki 1", "postnr": 109, "hverfi": "Stekkir", "lat": 64.11068, "lng": -21.82603, "caseNo": "USK26050004", "fnr": null, "desc": null, "decisionCode": "frestad", "date": "2026-06-30", "fund": 1263, "sizeM2": null, "sizeM3": null}, {"addr": "Hraunbær 102", "postnr": 110, "hverfi": "Árbær", "lat": 64.11776, "lng": -21.79737, "caseNo": "USK26050359", "fnr": null, "desc": "að breyta innra skipulagi og innrétta veitingastað í flokki II,tegund A í stað bensínstöðvar, mhl. 03, í verslunarhúsi á lóð nr. 102 við Hraunbæ", "decisionCode": "frestad", "date": "2026-06-30", "fund": 1263, "sizeM2": null, "sizeM3": null}, {"addr": "Kringlan 4-12", "postnr": null, "hverfi": null, "lat": null, "lng": null, "caseNo": "USK26050033", "fnr": null, "desc": "útbúa þaksvalir út frá matsvæði, rými 0201 í mhl. 02 á 3. hæð í verslunarhúsi á lóð nr. 4-6 við Kringluna", "decisionCode": "samthykkt", "date": "2026-06-30", "fund": 1263, "sizeM2": null, "sizeM3": null}, {"addr": "Skeifan 11C", "postnr": 108, "hverfi": "Skeifan", "lat": 64.13076, "lng": -21.86843, "caseNo": "USK26040255", "fnr": null, "desc": "breyta erindi USK25090130 þannig að innra skipulagi skyndibitastaðar, veitingastað í flokki l tegund c fyrir mest 20 gesti er breytt í rými 0102 á 1. hæð í verslunar- og skrifstofuhúsi við Skeifuna 11c, mhl.03, á lóð nr. 11 við Skeifuna", "decisionCode": "frestad", "date": "2026-06-30", "fund": 1263, "sizeM2": null, "sizeM3": null}, {"addr": "Stjörnugróf 9 (18.9--.99)", "postnr": 108, "hverfi": "Fossvogur", "lat": 64.11858, "lng": -21.85046, "caseNo": "USK26020186", "fnr": null, "desc": "breyta að reisa gróðurhús ásamt pökkunaraðstöðu og starfsmannarýmum, mhl. 0?, á lóð nr. 9 við Stjörnugróf", "decisionCode": "frestad", "date": "2026-06-30", "fund": 1263, "sizeM2": 521.8, "sizeM3": null}, {"addr": "Vesturgata 3", "postnr": 101, "hverfi": "Miðbær", "lat": 64.1488, "lng": -21.94213, "caseNo": "USK26050337", "fnr": null, "desc": "breyta innra skipulagi í kjallara og á fyrstu hæð á veitingastað í flokki ll, fyrir 155 gesti í rými 0101 í veitinga- og íbúðarhúsi, mhl. 01, á lóð nr. 3 við Vesturgötu", "decisionCode": "frestad", "date": "2026-06-30", "fund": 1263, "sizeM2": null, "sizeM3": null}, {"addr": "Almannadalur 27", "postnr": 161, "hverfi": "Almannadalur", "lat": 64.10044, "lng": -21.73964, "caseNo": "USK25100036", "fnr": null, "desc": "byggja svalir á austurgafl og breyta innra skipulagi í austurhluta hesthúss, mhl. 02, á lóð nr. 27 við Almannadal", "decisionCode": "samthykkt", "date": "2026-06-30", "fund": 1263, "sizeM2": null, "sizeM3": null}, {"addr": "Álfabakki 12", "postnr": 109, "hverfi": "Mjódd - norður", "lat": 64.10844, "lng": -21.84333, "caseNo": "USK25120196", "fnr": null, "desc": "breyta innra skipulagi og innrétta dansskóla fyrir allt að 200 manns í rými 0301 á 3. hæð í verslunar- og skrifstofuhúsi við Álfabakka 12, mhl.01, á lóðinni Álfab. 12-16/Þönglab", "decisionCode": "frestad", "date": "2026-06-30", "fund": 1263, "sizeM2": null, "sizeM3": null}, {"addr": "Álfabakki 8", "postnr": 109, "hverfi": "Mjódd - norður", "lat": 64.10802, "lng": -21.84463, "caseNo": "USK26050077", "fnr": null, "desc": "breyta notkun, útliti og innra skipulagi og innrétta sem skrifstofu- og verslunarhúsnæði fyrrum kvikmyndahús á lóð nr. 8 við Álfabakka", "decisionCode": "frestad", "date": "2026-06-30", "fund": 1263, "sizeM2": null, "sizeM3": null}, {"addr": "Ármúli 32", "postnr": 108, "hverfi": "Mýrar og Múlar", "lat": 64.13519, "lng": -21.87711, "caseNo": "USK26060016", "fnr": null, "desc": "fækka gluggum, koma fyrir skyggnum á suður- og norðurhlið framhúss, klæða með lóðréttri álklæðningu og sameina í einn, mhl.01 og mhl.02, á lóð nr. 32 við Ármúla", "decisionCode": "frestad", "date": "2026-06-30", "fund": 1263, "sizeM2": null, "sizeM3": null}, {"addr": "Barónsstígur 47", "postnr": 101, "hverfi": "Þingholt", "lat": 64.14104, "lng": -21.92201, "caseNo": "USK26040046", "fnr": null, "desc": "leyfi til þess að breyta notkun og innrétta á 3. og 4. hæð, gististað í flokki II, tegund d með 30 herbergjum auk sameiginlegrar eldunaraðstöðu og matsal á 4. hæð fyrir alls 80 gesti í húsi Heilsugæslunnar á lóð nr. 47 við Barónsstíg", "decisionCode": "frestad", "date": "2026-06-30", "fund": 1263, "sizeM2": null, "sizeM3": null}, {"addr": "Bauganes 40", "postnr": 102, "hverfi": "Skerjafjörður", "lat": 64.12812, "lng": -21.94925, "caseNo": "USK26060384", "fnr": null, "desc": "leyfi byggja bílskýli og geymslu, mhl.02, við einbýlishús á lóð nr. 40 við Bauganes", "decisionCode": "frestad", "date": "2026-06-30", "fund": 1263, "sizeM2": null, "sizeM3": null}, {"addr": "Bergstaðastræti 27", "postnr": 101, "hverfi": "Þingholt", "lat": 64.14355, "lng": -21.93422, "caseNo": "USK26060208", "fnr": null, "desc": "klæða að hluta með trefjaléttsteypuplötum og að hluta með báruáli fest á álundirkerfi, íbúðarhús nr. 27 og 27B á lóð nr. 27 við Bergstaðastræti", "decisionCode": "frestad", "date": "2026-06-30", "fund": 1263, "sizeM2": null, "sizeM3": null}, {"addr": "Bolholt 4", "postnr": 105, "hverfi": "Holt", "lat": 64.14006, "lng": -21.89618, "caseNo": "USK26010268", "fnr": null, "desc": "leyfi til þess að breyta erindi USK25040306 þannig að rými 0401 og 0402 eru sameinuð, innra skipulagi er breytt og innréttaðar læknastofur og viðtalsherbergi auk starfsmannaðstöðu á 4. hæð í skrifstofuhúsi, mhl.01, á lóð nr. 4 við Bolholt", "decisionCode": "frestad", "date": "2026-06-30", "fund": 1263, "sizeM2": null, "sizeM3": null}, {"addr": "Bolholt 9", "postnr": 105, "hverfi": "Holt", "lat": 64.13915, "lng": -21.89607, "caseNo": "USK25100417", "fnr": null, "desc": "breyta erindi BN059830 vegna lokaúttektar þannig að innra skipulagi, brunavörnum og brunamerkingum er breytt, auk þess sem sótt er um leyfi fyrir breytingu á lóð til að koma fyrir tröppum með fram fjölbýlishúsi við Bolholt 7-9, mhl.02, á lóð nr. 1 við Háaleitisbraut", "decisionCode": "frestad", "date": "2026-06-30", "fund": 1263, "sizeM2": null, "sizeM3": null}, {"addr": "Borgartún 1", "postnr": 105, "hverfi": "Tún", "lat": 64.14536, "lng": -21.91142, "caseNo": "USK26050149", "fnr": null, "desc": "breyta erindi USK25060187 þannig að innra skipulagi í kjallara er breytt og skráningartafla uppfærð fyrir hótel á lóð nr. 1 við Borgartún", "decisionCode": "frestad", "date": "2026-06-30", "fund": 1263, "sizeM2": null, "sizeM3": null}, {"addr": "Borgartún 19", "postnr": 105, "hverfi": "Tún", "lat": 64.14621, "lng": -21.90376, "caseNo": "USK26040398", "fnr": null, "desc": "bæta við loftræstirými í neðri kjallara í húsi Arionbanka á lóð nr. 19 við Borgartún", "decisionCode": "samthykkt", "date": "2026-06-30", "fund": 1263, "sizeM2": null, "sizeM3": null}, {"addr": "Borgartún 30", "postnr": 105, "hverfi": "Tún", "lat": 64.14567, "lng": -21.89574, "caseNo": "USK26060140", "fnr": null, "desc": "leyfi til fækka eignum með því að sameina rými 0401, 0402 og 0403 og innrétta sem heilsugæslu 4. hæð í skrifstofuhúsi á lóð nr. 30 við Borgartún", "decisionCode": "frestad", "date": "2026-06-30", "fund": 1263, "sizeM2": null, "sizeM3": null}, {"addr": "Byggðarendi 20", "postnr": 108, "hverfi": "Gerði", "lat": 64.12085, "lng": -21.851, "caseNo": "USK26040137", "fnr": null, "desc": "byggja sólskála við austurhlið neðri hæðar og koma fyrir svalalokun á svölum efri hæðar einbýlishúss á lóð nr. 20 við Byggðarenda", "decisionCode": "frestad", "date": "2026-06-30", "fund": 1263, "sizeM2": null, "sizeM3": null}, {"addr": "Bæjarflöt 2", "postnr": 112, "hverfi": "Flatir", "lat": 64.1444, "lng": -21.80304, "caseNo": "USK26060185", "fnr": null, "desc": "breyta erindi USK25110255 þannig að innra skipulagi er breytt í iðnaðarhúsi á lóð nr. 2 við Bæjarflöt", "decisionCode": "frestad", "date": "2026-06-30", "fund": 1263, "sizeM2": null, "sizeM3": null}, {"addr": "Bústaðavegur 97", "postnr": 108, "hverfi": "Gerði", "lat": 64.12235, "lng": -21.87164, "caseNo": "USK26050183", "fnr": null, "desc": "breyta erindi BN054829 þannig að innra skipulagi íbúðar 0201 er breytt í íbúðarhúsi á lóð nr. 97 við Bústaðaveg", "decisionCode": "samthykkt", "date": "2026-06-30", "fund": 1263, "sizeM2": null, "sizeM3": null}, {"addr": "Egilsgata 14", "postnr": 101, "hverfi": "Þingholt", "lat": 64.14034, "lng": -21.92321, "caseNo": "USK26030423", "fnr": null, "desc": "breyta erindi BN060948 vegna lokaúttektar þannig að gerðar hafa verið breytingar á innra skipulagi kjallara, útfærslu og hæð skjólveggja og tilhögun innan lóðar íbúðarhúss á lóð nr. 14 við Egilsgötu", "decisionCode": "samthykkt", "date": "2026-06-30", "fund": 1263, "sizeM2": null, "sizeM3": null}, {"addr": "Eldshöfði 2A", "postnr": null, "hverfi": null, "lat": null, "lng": null, "caseNo": "USK26050385", "fnr": null, "desc": "byggja spennistöð fyrir dreifistöð Veitna á lóð nr. 2A við Eldshöfða", "decisionCode": "samthykkt", "date": "2026-06-30", "fund": 1263, "sizeM2": null, "sizeM3": null}, {"addr": "Fossaleynir 19-23", "postnr": null, "hverfi": null, "lat": null, "lng": null, "caseNo": "USK26030119", "fnr": null, "desc": "breyta erindi USK25050045 þannig að innra skipulagi er breytt, vöruhurð bætt við á austurhlið og brunavarnir uppfærðar fyrir iðnaðarhúss á lóð nr. 19 - 23 við Fossaleyni", "decisionCode": "samthykkt", "date": "2026-06-30", "fund": 1263, "sizeM2": null, "sizeM3": null}, {"addr": "Grensásvegur 50", "postnr": 108, "hverfi": "Gerði", "lat": 64.12618, "lng": -21.87847, "caseNo": "USK26030162", "fnr": null, "desc": "breyta innra skipulagi og innrétta ? í rými 0201 í skrifstofuhúsi, mhl.02, á lóð nr. 50 við Grensásveg", "decisionCode": "frestad", "date": "2026-06-30", "fund": 1263, "sizeM2": null, "sizeM3": null}, {"addr": "Hafnarstræti 7", "postnr": 101, "hverfi": "Miðbær", "lat": 64.14829, "lng": -21.93945, "caseNo": "USK26050365", "fnr": null, "desc": "breyta innra skipulagi 1. og 2. hæðar í verslunar- og skrifstofuhúsi, mhl. 02, á lóð nr. 7 við Hafnarstræti", "decisionCode": "frestad", "date": "2026-06-30", "fund": 1263, "sizeM2": null, "sizeM3": null}, {"addr": "Hagatorg 1 (15.5--.97)", "postnr": 107, "hverfi": "Melar", "lat": 64.14145, "lng": -21.95259, "caseNo": "USK26040333", "fnr": null, "desc": "sameina undir eitt málsnúmer stoferindi BN061414, USK23060270, USK23100364, USK24020129, USK24060326, USK24090120, USK24100247, USK25010125 og USK25050362 auk breytingarerinda vegna lokaúttektar á hótel- veitinga- og skrifstofuhúsi á lóð nr. 1 við Hagatorg", "decisionCode": "samthykkt", "date": "2026-06-30", "fund": 1263, "sizeM2": null, "sizeM3": null}, {"addr": "Hjallavegur 30", "postnr": 104, "hverfi": "Laugarás", "lat": 64.1442, "lng": -21.86111, "caseNo": "USK26050396", "fnr": null, "desc": "stækka með viðbyggingu til vesturs íbúð 0101 í tvíbýlishúsi á lóð nr. 30 við Hjallaveg", "decisionCode": "samthykkt", "date": "2026-06-30", "fund": 1263, "sizeM2": 23.4, "sizeM3": 81.9}, {"addr": "Hraunteigur 19", "postnr": 105, "hverfi": "Teigar", "lat": 64.14617, "lng": -21.88344, "caseNo": "USK26040069", "fnr": null, "desc": "byggja svalir á suðurhlið rishæðar og fá ósamþykkta íbúð 0301 samþykkta í fjölbýlishúsi á lóð nr. 19 við Hraunteig", "decisionCode": "frestad", "date": "2026-06-30", "fund": 1263, "sizeM2": null, "sizeM3": null}, {"addr": "Hrefnugata 9", "postnr": 105, "hverfi": "Norðurmýri", "lat": 64.13863, "lng": -21.91682, "caseNo": "USK26010266", "fnr": null, "desc": "hækka þak, byggja tvo kvisti og svalir, innrétta svefnherbergi og baðherbergi í risi og breyta innra skipulagi á 2. hæð, einnig er gerð grein fyrir áður gerðum breytingum sem felast í að innra skipulagi hefur verið breytt í kjallara og á 1. hæð, innréttað íbúðarherbergi í hluta bílskúrs og byggð köld geymsla í garði einbýlishúss á lóð nr. 9 við Hrefnugötu", "decisionCode": "frestad", "date": "2026-06-30", "fund": 1263, "sizeM2": null, "sizeM3": null}, {"addr": "Hverafold 1-3", "postnr": 112, "hverfi": "Foldir", "lat": 64.13458, "lng": -21.79896, "caseNo": "USK26060035", "fnr": null, "desc": "breyta erindi USK24120098 þannig að innra skipulagi og brunavörnum er breytt í rými 0103 í verslunar- og iðnaðarhúsi á lóð nr. 1-3 við Hverafold", "decisionCode": "frestad", "date": "2026-06-30", "fund": 1263, "sizeM2": null, "sizeM3": null}, {"addr": "Höfðabakki 1", "postnr": 110, "hverfi": "Höfðar", "lat": 64.12808, "lng": -21.81081, "caseNo": "USK26060159", "fnr": null, "desc": "breyta innra skipulagi í rými 02-0102 úr veitingastað í hárgreiðslustofu í skrifstofu og atvinnuhúsi á lóð nr. 1 við Höfðabakka", "decisionCode": "frestad", "date": "2026-06-30", "fund": 1263, "sizeM2": null, "sizeM3": null}, {"addr": "Ingólfsstræti 19", "postnr": 101, "hverfi": "Þingholt", "lat": 64.14535, "lng": -21.93438, "caseNo": "USK26030134", "fnr": null, "desc": "breyta innra skipulagi, bæta aðgengi hreyfihamlaðra og uppfæra brunahönnun í kirkju Aðventista á lóð nr. 19 við Ingólfsstræti", "decisionCode": "samthykkt", "date": "2026-06-30", "fund": 1263, "sizeM2": null, "sizeM3": null}, {"addr": "Kleppsvegur 64", "postnr": 104, "hverfi": "Laugarás", "lat": 64.14793, "lng": -21.86546, "caseNo": "USK26040338", "fnr": null, "desc": "grafa frá hluta vesturhliðar, síkka glugga og færa inngang, breyta innra skipulagi 1. og 2. hæðar, leggja niður skrifstofur og fjölga dvalarrýmum um 24 þannig að samtals verði 129 dvalarrými á dvalarheimilinu Skjól við Kleppsveg 64, mhl. 20, á lóð nr. 13 við Brúnaveg", "decisionCode": "frestad", "date": "2026-06-30", "fund": 1263, "sizeM2": null, "sizeM3": null}, {"addr": "Kringlan 1", "postnr": 103, "hverfi": "Kringla", "lat": 64.12955, "lng": -21.89879, "caseNo": "USK26050078", "fnr": null, "desc": "koma auglýsingaskilti fyrir á suðurgafli prentsmiðju á lóð nr. 1 við Kringluna", "decisionCode": "frestad", "date": "2026-06-30", "fund": 1263, "sizeM2": null, "sizeM3": null}, {"addr": "Laugateigur 14", "postnr": 105, "hverfi": "Teigar", "lat": 64.14337, "lng": -21.88952, "caseNo": "USK26050440", "fnr": null, "desc": "byggja vinnustofu meðfram lóðarmörkum og upp að bílskúr aðliggjandi nr. 16, mhl.03, og tilheyrir íbúð ???? í íbúðarhúsi á lóð nr. 14 við Laugateig", "decisionCode": "frestad", "date": "2026-06-30", "fund": 1263, "sizeM2": 32.4, "sizeM3": 109.9}, {"addr": "Lækjargata 1", "postnr": 101, "hverfi": "Þingholt", "lat": 64.1473, "lng": -21.93527, "caseNo": "USK26050309", "fnr": null, "desc": "breyta innra skipulagi að rífa anddyri á austurhlið Stjórnarráðsins, skrifstofuhúsi, mhl.01. á lóð nr. 1 við Lækjargötu. Magn niðurrifs: xx.x ferm., xx.x rúmm", "decisionCode": "frestad", "date": "2026-06-30", "fund": 1263, "sizeM2": null, "sizeM3": null}, {"addr": "Lækjargata 1", "postnr": 101, "hverfi": "Þingholt", "lat": 64.1473, "lng": -21.93527, "caseNo": "USK26050308", "fnr": null, "desc": "byggja tveggja hæða skrifstofuhús auk kjallara og tengigangs að austurhlið Stjórnarráðs Íslands, mhl.01, á lóð nr. 1 við Lækjargötu", "decisionCode": "frestad", "date": "2026-06-30", "fund": 1263, "sizeM2": null, "sizeM3": null}, {"addr": "Malarhöfði 2", "postnr": 110, "hverfi": "Höfðar", "lat": 64.12477, "lng": -21.83577, "caseNo": "USK25100142", "fnr": null, "desc": "leyfi fyrir áður gerðum breytingum byggðum á erindi BN048604, samþykktu 22. desember 2014 í rými 0201 verslunar- og skrifstofuhúsi við Malarhöfða 2, mhl.02, á lóð nr. 2-2A við Malarhöfða", "decisionCode": "samthykkt", "date": "2026-06-30", "fund": 1263, "sizeM2": null, "sizeM3": null}, {"addr": "Miðtún 11", "postnr": 105, "hverfi": "Tún", "lat": 64.14427, "lng": -21.90438, "caseNo": "USK25100266", "fnr": null, "desc": "leyfi fyrir áður gerðum breytingum á innra skipulagi og útliti einbýlishúss, mhl. 01 og bílskúrs, mhl. 02, á lóð nr. 11 við Miðtún", "decisionCode": "frestad", "date": "2026-06-30", "fund": 1263, "sizeM2": null, "sizeM3": null}, {"addr": "Neshagi 13", "postnr": 107, "hverfi": "Hagar", "lat": 64.14275, "lng": -21.96193, "caseNo": "USK26040019", "fnr": null, "desc": "opna milli rýma með því að fjarlægja burðarvegg og koma fyrir stálbita neðan við loft íbúðar 0201 í íbúðarhúsi á lóð nr. 13 við Nesveg", "decisionCode": "samthykkt", "date": "2026-06-30", "fund": 1263, "sizeM2": null, "sizeM3": null}, {"addr": "Rafstöðvarvegur 33", "postnr": 110, "hverfi": "Ártúnsholt", "lat": 64.11924, "lng": -21.83359, "caseNo": "USK26020160", "fnr": null, "desc": "leyfi gera tröppur og inngang að kjallara við norðausturhlið, mhl.01, breyta innra skipulagi og innrétta sem íbúð í kjallara íbúðar 0101 og til þess að byggja tvöfaldan bílskúr, mhl. 02, á við parhús á lóð nr 33 við Rafstöðvarveg", "decisionCode": "frestad", "date": "2026-06-30", "fund": 1263, "sizeM2": null, "sizeM3": null}, {"addr": "Rauðalækur 45", "postnr": 105, "hverfi": "Lækir", "lat": 64.15004, "lng": -21.8772, "caseNo": "USK26060136", "fnr": null, "desc": null, "decisionCode": "samthykkt", "date": "2026-06-30", "fund": 1263, "sizeM2": null, "sizeM3": null}, {"addr": "Skarfabakki (án lóðar)", "postnr": null, "hverfi": null, "lat": null, "lng": null, "caseNo": "USK26020154", "fnr": null, "desc": "stöðuleyfi fyrir tjaldi fyrir 300 manns auk salernisþjónustu til að þjónusta farþegum skemmtiferðaskipa, staðsett tímabundið utan lóðar við Korngarða 13 á Skarfabakka", "decisionCode": "frestad", "date": "2026-06-30", "fund": 1263, "sizeM2": null, "sizeM3": null}, {"addr": "Skipholt 17", "postnr": 105, "hverfi": "Holt", "lat": 64.14129, "lng": -21.90571, "caseNo": "USK26060181", "fnr": null, "desc": "breyta eignarhaldi á rými 0002 sem er skráð í sameign allra en á að vera í séreign 0001 ásamt því er sótt um að stigahús, þvottur og svalagangur verði breytt úr sameign allra í sameign sumra í verslunar og íbúðarhúsi á lóð nr. 17 við Skipholt", "decisionCode": "frestad", "date": "2026-06-30", "fund": 1263, "sizeM2": null, "sizeM3": null}, {"addr": "Skógarhlíð 12", "postnr": 105, "hverfi": "Hlíðar", "lat": 64.13335, "lng": -21.91967, "caseNo": "USK26050340", "fnr": null, "desc": "breyta innra skipulagi í norðurhluta 5. hæðar, rými ? í skrifstofuhúsi á lóð nr. 12 við Skógarhlíð", "decisionCode": "frestad", "date": "2026-06-30", "fund": 1263, "sizeM2": null, "sizeM3": null}, {"addr": "Sogavegur 108", "postnr": 108, "hverfi": "Gerði", "lat": 64.12575, "lng": -21.863, "caseNo": "USK26040116", "fnr": null, "desc": "leyfi fyrir áður gerðum breytingum sem felast í að innréttaðar hafa verið læknastofur á 2. hæð, íbúð 0201 minnkuð og innra skipulagi í kjallara breytt, auk þess gluggum hefur verið breytt og suðurgafl klæddur álklæðningu á verslunar og skrifstofuhúsi, mhl.03, lóð nr. 1-3 við Réttarholtsveg", "decisionCode": "frestad", "date": "2026-06-30", "fund": 1263, "sizeM2": null, "sizeM3": null}, {"addr": "Staðarbakki 26", "postnr": 109, "hverfi": "Bakkar", "lat": 64.10871, "lng": -21.83983, "caseNo": "USK26040399", "fnr": null, "desc": "setja svalalokun á svalir efri hæðar og nýja útihurð á austurhlið neðri hæðar raðhúss nr. 26, mhl.06, á lóð nr. 16-26 við Staðarbakka", "decisionCode": "samthykkt", "date": "2026-06-30", "fund": 1263, "sizeM2": null, "sizeM3": null}, {"addr": "Stefnisvogur 54", "postnr": null, "hverfi": null, "lat": null, "lng": null, "caseNo": "USK26040023", "fnr": null, "desc": "byggja tvö 3 - 7 hæða fjölbýlishús með 86 íbúðum á sameiginlegum bílakjallara með 72 bílastæðum, geymslum og tæknirýmum á lóð nr. 54 við Stefnisvog", "decisionCode": "samthykkt", "date": "2026-06-30", "fund": 1263, "sizeM2": null, "sizeM3": null}, {"addr": "Steinhöfði 2A", "postnr": null, "hverfi": null, "lat": null, "lng": null, "caseNo": "USK26050386", "fnr": null, "desc": null, "decisionCode": "samthykkt", "date": "2026-06-30", "fund": 1263, "sizeM2": 7.5, "sizeM3": 21.8}, {"addr": "Suðurlandsbraut 40", "postnr": null, "hverfi": null, "lat": null, "lng": null, "caseNo": "USK26030032", "fnr": null, "desc": "breyta stofnerindi USK23070201 þar sem breytt er innra skipulagi í íbúðum 05-0102, 05-0203, 05-0305, 05-0805, 06-0802 ásamt því að breyta skráningu á rýmum í kjallara fjölbýlishúss á lóð nr. 40 við Suðurlandsbraut", "decisionCode": "samthykkt", "date": "2026-06-30", "fund": 1263, "sizeM2": null, "sizeM3": null}, {"addr": "Sörlaskjól 10", "postnr": 107, "hverfi": "Skjól", "lat": 64.14276, "lng": -21.96796, "caseNo": "USK26060086", "fnr": null, "desc": "færa aðalinngang hússins frá suðversturhlið að norðurhlið og byggja nýja forstofu með gestasalerni við einbýlishús á lóð nr. 10 við Sörlaskjól", "decisionCode": "frestad", "date": "2026-06-30", "fund": 1263, "sizeM2": null, "sizeM3": null}, {"addr": "Torfufell 23", "postnr": 111, "hverfi": "Fell", "lat": 64.10006, "lng": -21.81915, "caseNo": "USK26050338", "fnr": null, "desc": "koma fyrir fjarskiptabúnaði á norðurgafl fjölbýlishúss á lóð nr. 23 við Torfufell. Hæð masturs 4 metrar. Neikvætt með vísan til umsagnar skipulagsfulltrúa, dags. 23. júní 2026", "decisionCode": "frestad", "date": "2026-06-30", "fund": 1263, "sizeM2": null, "sizeM3": null}, {"addr": "Tryggvagata 19", "postnr": 101, "hverfi": "Miðbær", "lat": 64.14874, "lng": -21.93881, "caseNo": "USK26060158", "fnr": null, "desc": "skipta út hringhurð á norðurhlið og setja í staðinn iðnaðarhurð ásamt því að setja reykhólfandi skil á milli matarmarkaðar og nytjamarkaðar í Kolaportinu, á 1. hæð í skrifstofu- og vörugeymslu á lóð nr. 19 við Tryggvagötu", "decisionCode": "frestad", "date": "2026-06-30", "fund": 1263, "sizeM2": null, "sizeM3": null}, {"addr": "Túngata 5", "postnr": 101, "hverfi": "Vesturbær", "lat": 64.14745, "lng": -21.94459, "caseNo": "USK26010494", "fnr": null, "desc": "samþykki fyrir áður gerðri íbúð í mhl. 02 sem er skráð sem bílskúr við fjölbýlishús á lóð nr. 5 við Túngötu", "decisionCode": "frestad", "date": "2026-06-30", "fund": 1263, "sizeM2": null, "sizeM3": null}, {"addr": "Valshlíð 1", "postnr": null, "hverfi": null, "lat": null, "lng": null, "caseNo": "USK26060110", "fnr": null, "desc": "breyta erindi BN061145, með síðari breytingum, vegna lokaúttektar þannig að brunamerkingar glugga eru uppfærðar í fjölbýlishúsi við Valshlíð 1, á lóð nr. 2 við Haukahlíð", "decisionCode": "samthykkt", "date": "2026-06-30", "fund": 1263, "sizeM2": null, "sizeM3": null}, {"addr": "Vogaland 12", "postnr": 108, "hverfi": "Fossvogur", "lat": 64.11978, "lng": -21.85081, "caseNo": "USK24110062", "fnr": null, "desc": "leyfi til þess að fjölga eignum og fá samþykkta áður gerða ósamþykkta íbúð í kjallara einbýlishúss á lóð nr. 12 við Vogaland", "decisionCode": "frestad", "date": "2026-06-30", "fund": 1263, "sizeM2": null, "sizeM3": null}, {"addr": "Þönglabakki 1", "postnr": 109, "hverfi": "Mjódd - norður", "lat": 64.10871, "lng": -21.84258, "caseNo": "USK25110395", "fnr": null, "desc": "breyta innra skipulagi verslunar Nettó í rými 0101 í verslunar- og skrifstofuhúsi við Þönglabakka 1, mhl.06 á lóðinni Álfab.12-16/Þönglab", "decisionCode": "frestad", "date": "2026-06-30", "fund": 1263, "sizeM2": null, "sizeM3": null}, {"addr": "Æsufell 6", "postnr": 111, "hverfi": "Fell", "lat": 64.10225, "lng": -21.82798, "caseNo": "USK26050047", "fnr": null, "desc": "breyta notkun og innrétta íbúð í rými 0101 í fjölbýlishúsi, mhl. 03, á lóð nr. 6 við Æsufell", "decisionCode": "frestad", "date": "2026-06-30", "fund": 1263, "sizeM2": null, "sizeM3": null}, {"addr": "Álftamýri 79", "postnr": 108, "hverfi": "Mýrar og Múlar", "lat": 64.1347, "lng": -21.8932, "caseNo": "USK26060065", "fnr": null, "desc": "skipta út eldvarnarhurðum að skólastofum Álftamýraraskóla, mhl.01, á lóð nr. 79 við Álftamýri", "decisionCode": "frestad", "date": "2026-06-23", "fund": 1262, "sizeM2": null, "sizeM3": null}, {"addr": "Brúarvogur 1-3", "postnr": 104, "hverfi": "Sundahöfn", "lat": 64.13569, "lng": -21.84395, "caseNo": "USK26030422", "fnr": null, "desc": "leyfi til breyta erindi BN036137, með síðari breytingum,vegna lokaúttektar þannig að innra skipulagi hefur verið breytt og innréttaðar skrifstofur og brunavarnir uppfærðar fyrir rými 0201 í verslunarhúsi á lóð nr. 1-3 við Brúarvog", "decisionCode": "frestad", "date": "2026-06-23", "fund": 1262, "sizeM2": null, "sizeM3": null}, {"addr": "Efstasund 59", "postnr": 104, "hverfi": "Sund", "lat": 64.13997, "lng": -21.85843, "caseNo": "USK26040094", "fnr": null, "desc": "breyta erindi USK25050301 þannig að innra skipulagi er breytt, bílskúr er stækkaður um meter til austurs og svalir stækkaðar á einbýlishúsi á lóð nr. 59 við Efstasund", "decisionCode": "frestad", "date": "2026-06-23", "fund": 1262, "sizeM2": null, "sizeM3": null}, {"addr": "Frostaskjól 2", "postnr": 107, "hverfi": "Skjól", "lat": 64.14628, "lng": -21.96867, "caseNo": "USK26030474", "fnr": null, "desc": "stöðuleyfi frá 6. apríl 2026 til 31. október 2026 fyrir veislutjald, með veitingaleyfi í flokki ll, teg. g fyrir 50 gesti, 5.0 x 10.0m að stærð, 26 feta gám fyrir greiðasölu tengt 49.0 ferm. afgirtu svæði vestan megin með veitingaleyfi í flokki ll tegund g fyrir 40 gesti á kappleikjum knattspyrnufélagsins KR lóð nr. 2 við Frostaskjól", "decisionCode": "frestad", "date": "2026-06-23", "fund": 1262, "sizeM2": null, "sizeM3": null}, {"addr": "Hlésgata 2", "postnr": 101, "hverfi": "Vesturhöfn", "lat": 64.15181, "lng": -21.94726, "caseNo": "USK25120059", "fnr": null, "desc": "byggja steinsteypt 3-4 hæða fjölbýlishús með 67 íbúðum á bílakjallara með 31 bílastæði á lóð nr. 2 við Hlésgötu", "decisionCode": "frestad", "date": "2026-06-23", "fund": 1262, "sizeM2": null, "sizeM3": null}, {"addr": "Hraunberg 4", "postnr": 111, "hverfi": "Berg", "lat": 64.10523, "lng": -21.81545, "caseNo": "USK26060063", "fnr": null, "desc": "leyfi fyrir fækkun eigna og áður gerðum breytingum sem felast í að rými 0206, 0207, 0208 og 0210 hafa verið sameinuð og innréttuð sem skrifstofur í rými 020? í verslunar, í skrifstofu- og íbúðarhúsi á lóð nr. 4 við Hraunberg", "decisionCode": "frestad", "date": "2026-06-23", "fund": 1262, "sizeM2": null, "sizeM3": null}, {"addr": "Hólmgarður 45", "postnr": 108, "hverfi": "Gerði", "lat": 64.12299, "lng": -21.87003, "caseNo": "USK26040138", "fnr": null, "desc": "hækka þak og byggja kvisti á fjölbýlishús á lóð nr. 45 við Hólmgarð", "decisionCode": "frestad", "date": "2026-06-23", "fund": 1262, "sizeM2": null, "sizeM3": null}, {"addr": "Kirkjutorg 4", "postnr": 101, "hverfi": "Miðbær", "lat": 64.14636, "lng": -21.93944, "caseNo": "USK26060037", "fnr": null, "desc": "breyta flokki veitingastaðar í rýmum 03-0102 og 01-0101 í veitingastað í lll, teg. b fyrir ??? gesti og tegund gististaðar á efri hæðum í flokk lV tegund b fyrir ??? gesti í húsi á lóð nr. 4 við Kirkjutorg og nr. 3 við Templarasund", "decisionCode": "frestad", "date": "2026-06-23", "fund": 1262, "sizeM2": null, "sizeM3": null}, {"addr": "Kringlan 4-12", "postnr": null, "hverfi": null, "lat": null, "lng": null, "caseNo": "USK26050033", "fnr": null, "desc": "útbúa þaksvalir út frá matsvæði, rými 0201 í mhl. 02 á 3. hæð í verslunarhúsi á lóð nr. 4-6 við Kringluna", "decisionCode": "frestad", "date": "2026-06-23", "fund": 1262, "sizeM2": null, "sizeM3": null}, {"addr": "Laugavegur 143", "postnr": 105, "hverfi": "Tún", "lat": 64.14317, "lng": -21.91063, "caseNo": "USK26020452", "fnr": null, "desc": "leyfi fyrir áður gerðum breytingum á innra skipulagi og til að koma fyrir þremur bílastæðum á lóð fjölbýlishúss á lóð nr. 143 við Laugaveg", "decisionCode": "frestad", "date": "2026-06-23", "fund": 1262, "sizeM2": null, "sizeM3": null}, {"addr": "Tryggvagata 17", "postnr": 101, "hverfi": "Miðbær", "lat": 64.14906, "lng": -21.94047, "caseNo": "USK26050460", "fnr": null, "desc": null, "decisionCode": "frestad", "date": "2026-06-23", "fund": 1262, "sizeM2": null, "sizeM3": null}, {"addr": "Grensásvegur 50", "postnr": 108, "hverfi": "Gerði", "lat": 64.12618, "lng": -21.87847, "caseNo": "USK26030162", "fnr": null, "desc": "breyta innra skipulagi og innrétta ? í rými 0201 í skrifstofuhúsi, mhl.02, á lóð nr. 50 við Grensásveg", "decisionCode": "frestad", "date": "2026-06-23", "fund": 1262, "sizeM2": null, "sizeM3": null}, {"addr": "Grensásvegur 50", "postnr": 108, "hverfi": "Gerði", "lat": 64.12618, "lng": -21.87847, "caseNo": "USK26050314", "fnr": null, "desc": "leyfi fyrir áður gerðum breytingum sem felast í að innréttuð hefur verið hárgreiðslustofa í norðurhluta rýmis 0101 í skrifstofu- og verslunarhúsi, mhl.01, á lóð nr. 50 við Grensásveg", "decisionCode": "frestad", "date": "2026-06-23", "fund": 1262, "sizeM2": null, "sizeM3": null}, {"addr": "Hagatorg 1 (15.5--.97)", "postnr": 107, "hverfi": "Melar", "lat": 64.14145, "lng": -21.95259, "caseNo": "USK26040333", "fnr": null, "desc": "sameina undir eitt málsnúmer stofnerindi BN061414, USK23060270, USK23100364, USK24020129, USK24060326, USK24090120, USK24100247, USK25010125 og USK25050362 auk breytingarerinda vegna lokaúttektar á hótel- veitinga- og skrifstofuhúsi á lóð nr. 1 við Hagatorg", "decisionCode": "frestad", "date": "2026-06-23", "fund": 1262, "sizeM2": null, "sizeM3": null}, {"addr": "Hjallavegur 30", "postnr": 104, "hverfi": "Laugarás", "lat": 64.1442, "lng": -21.86111, "caseNo": "USK26050396", "fnr": null, "desc": "stækka með viðbyggingu til vesturs íbúð 0101 í tvíbýlishúsi á lóð nr. 30 við Hjallaveg", "decisionCode": "frestad", "date": "2026-06-23", "fund": 1262, "sizeM2": 23.4, "sizeM3": 81.9}, {"addr": "Hverafold 1-3", "postnr": 112, "hverfi": "Foldir", "lat": 64.13458, "lng": -21.79896, "caseNo": "USK26060035", "fnr": null, "desc": "breyta erindi USK24120098 þannig að innra skipulagi og brunavörnum er breytt í rými 0103 í verslunar- og iðnaðarhúsi á lóð nr. 1-3 við Hverafold", "decisionCode": "frestad", "date": "2026-06-23", "fund": 1262, "sizeM2": null, "sizeM3": null}, {"addr": "Staðarbakki 26", "postnr": 109, "hverfi": "Bakkar", "lat": 64.10871, "lng": -21.83983, "caseNo": "USK26040399", "fnr": null, "desc": "setja svalalokun á svalir efri hæðar og nýja útihurð á austurhlið neðri hæðar í raðhúsi við nr.26, mhl.06, á lóð nr. 16 - 26 við Staðarbakka", "decisionCode": "frestad", "date": "2026-06-23", "fund": 1262, "sizeM2": null, "sizeM3": null}, {"addr": "Stefnisvogur 54", "postnr": null, "hverfi": null, "lat": null, "lng": null, "caseNo": "USK26040023", "fnr": null, "desc": "byggja tvö 3- 7 hæða fjölbýlishús með 86 íbúðum á sameiginlegum bílakjallara með 72 bílastæðum, geymslum og tæknirýmum á lóð nr. 54 við Stefnisvog", "decisionCode": "frestad", "date": "2026-06-23", "fund": 1262, "sizeM2": null, "sizeM3": null}, {"addr": "Sörlaskjól 10", "postnr": 107, "hverfi": "Skjól", "lat": 64.14276, "lng": -21.96796, "caseNo": "USK26060086", "fnr": null, "desc": "færa aðalinngang hússins frá suðversturhlið að norðurhlið og byggja þar nýja forstofu með gestasalerni við einbýlishús á lóð nr. 10 við Sörlaskjól", "decisionCode": "frestad", "date": "2026-06-23", "fund": 1262, "sizeM2": null, "sizeM3": null}, {"addr": "Austurgerði 1", "postnr": 108, "hverfi": "Gerði", "lat": 64.12127, "lng": -21.85454, "caseNo": "USK26020380", "fnr": null, "desc": "bæta við bílastæði á lóð, stækka með viðbyggingu, breyta útliti og innra skipulagi og fjölga eignum í fjórar með því að breyta bílskúr í íbúð og innrétta tvær íbúðir í kjallara í íbúðarhúsi á lóð nr. 1 við Austurgerði", "decisionCode": "synjad", "date": "2026-06-23", "fund": 1262, "sizeM2": null, "sizeM3": null}, {"addr": "Borgartún 28", "postnr": 105, "hverfi": "Tún", "lat": 64.14582, "lng": -21.89727, "caseNo": "USK26040166", "fnr": null, "desc": "koma fyrir flóttahurð á vesturhlið 1. hæðar, breyta notkun og innrétta sem geymslurými með samtals ? geymslum til útleigu á 1. hæð og í kjallara rýmis 0102 í verslunarhúsi, mhl.05, á lóð nr. 28 við Borgartún", "decisionCode": "frestad", "date": "2026-06-23", "fund": 1262, "sizeM2": null, "sizeM3": null}, {"addr": "Bragagata 26A", "postnr": 101, "hverfi": "Þingholt", "lat": 64.14183, "lng": -21.93242, "caseNo": "USK25070383", "fnr": null, "desc": "fjarlægja kvist á norðurþekju, stækka og endurgera kvist á suðurþekju einbýlishúss á lóð nr. 26A við Bragagötu", "decisionCode": "samthykkt", "date": "2026-06-23", "fund": 1262, "sizeM2": 0.5, "sizeM3": 29.0}, {"addr": "Brekkugerði 4", "postnr": 108, "hverfi": "Gerði", "lat": 64.12609, "lng": -21.88479, "caseNo": "USK26060115", "fnr": null, "desc": "byggja bílskúr, mhl.02, á lóð nr. 4 við Brekkugerði", "decisionCode": "frestad", "date": "2026-06-23", "fund": 1262, "sizeM2": 35.4, "sizeM3": 104.9}, {"addr": "Brávallagata 8", "postnr": 101, "hverfi": "Vesturbær", "lat": 64.14486, "lng": -21.95063, "caseNo": "USK26060087", "fnr": null, "desc": "setja svalir á austurhlið 1.-3. hæðar á fjölbýlishúsi á lóð nr. 8 við Brávallagötu", "decisionCode": "frestad", "date": "2026-06-23", "fund": 1262, "sizeM2": null, "sizeM3": null}, {"addr": "Depluhólar 2", "postnr": 111, "hverfi": "Hólar", "lat": 64.11109, "lng": -21.82023, "caseNo": "USK26050360", "fnr": null, "desc": "breyta notkun og innrétta vinnustofu í bílskúr, breyta gluggum og fjarlægja bílskúrshurð auk þess sem sótt er um leyfi fyrir 1.8 m háum steyptum skjólvegg meðfram lóðarmörkum til suðurs og austurs við einbýlishús á lóð nr. 2 við Depluhóla", "decisionCode": "frestad", "date": "2026-06-23", "fund": 1262, "sizeM2": null, "sizeM3": null}, {"addr": "Eyjarslóð 9", "postnr": 101, "hverfi": "Örfirisey", "lat": 64.15923, "lng": -21.93955, "caseNo": "USK26010076", "fnr": null, "desc": "skipta verkstæði í rými 0102 í tvær eignir, koma fyrir iðnaðarhurð á suðurhlið og innrétta geymslur á 1. hæð í mhl. 01 á lóð nr. 9 við Eyjarslóð", "decisionCode": "samthykkt", "date": "2026-06-23", "fund": 1262, "sizeM2": null, "sizeM3": null}, {"addr": "Fífusel 37", "postnr": 109, "hverfi": "Sel", "lat": 64.09917, "lng": -21.83351, "caseNo": "USK26060114", "fnr": null, "desc": "koma fyrir svalalokun á svalir íbúðar 0202 í sambýlishúsi, mhl.07, við Fífusel 37 á lóð nr. 25-41 við Fífusel", "decisionCode": "samthykkt", "date": "2026-06-23", "fund": 1262, "sizeM2": null, "sizeM3": null}, {"addr": "Garðastræti 17", "postnr": 101, "hverfi": "Miðbær", "lat": 64.14839, "lng": -21.94391, "caseNo": "USK26040227", "fnr": null, "desc": "leyfi til breyta notkun og innrétta íbúð í rými 0001 í kjallara íbúðarhúss á lóð nr. 17 við Garðasræti", "decisionCode": "synjad", "date": "2026-06-23", "fund": 1262, "sizeM2": null, "sizeM3": null}, {"addr": "Geirsgata 9", "postnr": 101, "hverfi": "Vesturhöfn", "lat": 64.15054, "lng": -21.94301, "caseNo": "USK26010342", "fnr": null, "desc": "breyta innra skipulagi í veitingastað í fl. II, teg. a fyrir 96 gesti á 1. hæð og í kjallara húss á lóð nr. 9 við Geirsgötu", "decisionCode": "samthykkt", "date": "2026-06-23", "fund": 1262, "sizeM2": null, "sizeM3": null}, {"addr": "Gjúkabryggja 8", "postnr": 110, "hverfi": "Bryggjuhverfi", "lat": 64.13339, "lng": -21.82381, "caseNo": "USK26020157", "fnr": null, "desc": "byggja 3- til 4 hæða steinsteypt fjölbýlishús með 110 íbúðum á sameiginlegum bílakjallara með 57 stæðum á lóð nr. 8 við Gjúkabryggju", "decisionCode": "samthykkt", "date": "2026-06-23", "fund": 1262, "sizeM2": null, "sizeM3": null}, {"addr": "Glaðheimar 26", "postnr": 104, "hverfi": "Heimar", "lat": 64.13418, "lng": -21.86147, "caseNo": "USK24110063", "fnr": null, "desc": "leyfi fyrir áður gerðum breytingum vegna gerðar eignaskiptasamnings, þannig að stærðir og innra skipulag íbúða 0001 og 0002 hefur verið breytt auk þess sem inntök og mælar eru staðsettir í rými sem orðinn er hluti íbúðar 0001 í kjallara fjölbýlishúss á lóð nr. 26 við Glaðheima", "decisionCode": "frestad", "date": "2026-06-23", "fund": 1262, "sizeM2": null, "sizeM3": null}, {"addr": "Grensásvegur 1", "postnr": 108, "hverfi": "Skeifan", "lat": 64.13331, "lng": -21.87192, "caseNo": "USK26060111", "fnr": null, "desc": "leyfi til þess að breyta erindi BN058350, með síðari breytingum BN059226, BN060034 og USK25030284, vegna lokaúttektar þannig staðsetning stiglagnar er breytt í bílakjallara, mhl.05, á lóð nr. 1 við Grensásveg", "decisionCode": "samthykkt", "date": "2026-06-23", "fund": 1262, "sizeM2": null, "sizeM3": null}, {"addr": "Grensásvegur 1C", "postnr": 108, "hverfi": "Skeifan", "lat": 64.13258, "lng": -21.8716, "caseNo": "USK26050312", "fnr": null, "desc": "breyta notkun og nýta 14 íbúðir sem hótelíbúðir í flokki lV í fjölbýlis- og verslunarhúsi við Grensásveg 1C, mhl.04, á lóð nr. 1 við Grensásveg", "decisionCode": "frestad", "date": "2026-06-23", "fund": 1262, "sizeM2": null, "sizeM3": null}, {"addr": "Hraunbær 50", "postnr": 110, "hverfi": "Árbær", "lat": 64.11867, "lng": -21.80361, "caseNo": "USK26060139", "fnr": null, "desc": "fjölga eignum með því að sameina í eina eign í rými 0001, 0002, 0003 og snyrtingu 0011, breyta innra skipulagi og innrétta sem íbúð 0001 í kjallara fjölbýlishúss við Hraunbæ 50, mhl.08, á lóð nr.36-60 við Hraunbæ", "decisionCode": "frestad", "date": "2026-06-23", "fund": 1262, "sizeM2": null, "sizeM3": null}, {"addr": "Hringbraut 110", "postnr": 101, "hverfi": "Vesturbær", "lat": 64.14872, "lng": -21.95802, "caseNo": "USK26060230", "fnr": null, "desc": "leyfi fyrir áður gerðum breytingum á innra skipulagi og útliti einbýlishúss á lóð nr. 110 við Hringbraut", "decisionCode": "frestad", "date": "2026-06-23", "fund": 1262, "sizeM2": null, "sizeM3": null}, {"addr": "Hyrjarhöfði 3", "postnr": 110, "hverfi": "Höfðar", "lat": 64.12801, "lng": -21.82203, "caseNo": "USK26020159", "fnr": null, "desc": "fækka og breyta staðsetningu bílastæða, fjölga eignum með því að breyta öllu innra skipulagi og innrétta 6 sjálfstæð atvinnurými, breyta glugga- og hurðarsetningum, bæta við svölum og svalahurðum á báðar hliðar 2. hæðar, koma fyrir þremur iðnaðarhurðum á norðurhlið 1. hæðar, og klæða að utan með sléttri álklæðningu iðnaðarhús á lóð nr. 3 við Hyrjarhöfða", "decisionCode": "frestad", "date": "2026-06-23", "fund": 1262, "sizeM2": null, "sizeM3": null}, {"addr": "Höfðabakki 9", "postnr": 110, "hverfi": "Höfðar", "lat": 64.12619, "lng": -21.80916, "caseNo": "USK26040217", "fnr": null, "desc": "breyta innra skipulagi og stækka verslun með því að sameina notkunareiningar á 1. hæð í austurhluta skrifstofu- og verslunarhúss, mhl.01, á lóð nr. 9 við Höfðabakka", "decisionCode": "frestad", "date": "2026-06-23", "fund": 1262, "sizeM2": null, "sizeM3": null}, {"addr": "Hörpugata 4", "postnr": 102, "hverfi": "Litli Skerjafjörður", "lat": 64.13398, "lng": -21.95345, "caseNo": "USK26060113", "fnr": null, "desc": "leyfi fyrir áður gerðum breytingum sem felast í breytingum á innra skipulagi þannig að geymslu, mhl.02, hefur verið breytt í vinnustofu við íbúðarhús á lóð nr. 4 við Hörpugötu", "decisionCode": "frestad", "date": "2026-06-23", "fund": 1262, "sizeM2": null, "sizeM3": null}, {"addr": "Laugavegur 107", "postnr": 105, "hverfi": "Hlemmur", "lat": 64.14321, "lng": -21.91416, "caseNo": "USK26030397", "fnr": null, "desc": "leyfi fyrir áður gerðum breytingum á innra skipulagi rýma 019, 025, 006, 021 og 022 í Mathöllinni við Hlemm, húsi á lóð nr. 107 við Laugaveg", "decisionCode": "frestad", "date": "2026-06-23", "fund": 1262, "sizeM2": null, "sizeM3": null}, {"addr": "Nóatún 17", "postnr": 105, "hverfi": "Tún", "lat": 64.14257, "lng": -21.90245, "caseNo": "USK26060034", "fnr": null, "desc": "breyta innra skipulagi í rými 0101 í verslunarhúsi á lóð nr. 17 við Nóatún", "decisionCode": "frestad", "date": "2026-06-23", "fund": 1262, "sizeM2": null, "sizeM3": null}, {"addr": "Ránargata 16", "postnr": 101, "hverfi": "Vesturbær", "lat": 64.14973, "lng": -21.94623, "caseNo": "USK26030276", "fnr": null, "desc": "breyta erindi BN029148 vegna lokaúttektar þannig að gerðar hafa verið breytingar á innra skipulagi í einbýlishúsi á lóð nr. 16 við Ránargötu", "decisionCode": "frestad", "date": "2026-06-23", "fund": 1262, "sizeM2": null, "sizeM3": null}, {"addr": "Skipholt 19", "postnr": 105, "hverfi": "Holt", "lat": 64.14129, "lng": -21.90539, "caseNo": "USK26020072", "fnr": null, "desc": "breyta erindi USK23110167 þannig að innra skipulagi er breytt og innréttaður er veitingastaður í flokki ll tegund a fyrir allt að 80 gesti í rými 0101 í sambýlis- og iðnaðarhúsi á lóð nr. 19 við Skipholt", "decisionCode": "samthykkt", "date": "2026-06-23", "fund": 1262, "sizeM2": null, "sizeM3": null}, {"addr": "Skipholt 70", "postnr": 105, "hverfi": "Holt", "lat": 64.13763, "lng": -21.89759, "caseNo": "USK26060033", "fnr": null, "desc": "breyta innra skipulagi. opna á milli rýma 0101 og 0102 og innrétta verslun og kjötvinnslu í sameinuðu rými í verslunar- og fjölbýlishúsi á lóð nr 70 við Skipholt", "decisionCode": "frestad", "date": "2026-06-23", "fund": 1262, "sizeM2": null, "sizeM3": null}, {"addr": "Skólavörðustígur 25", "postnr": 101, "hverfi": "Þingholt", "lat": 64.14408, "lng": -21.92954, "caseNo": "USK24070312", "fnr": null, "desc": "byggja viðbyggingu til norðurs uppað og ofaná mhl. 03, byggja svalir, innrétta geymslur í kjallara og skrifstofur á hæð og sameina í einn matshluta hús á lóð nr. 25 við Skólavörðustíg", "decisionCode": "frestad", "date": "2026-06-23", "fund": 1262, "sizeM2": 106.8, "sizeM3": 277.7}, {"addr": "Snorrabraut 27-29", "postnr": 105, "hverfi": "Hlemmur", "lat": 64.14363, "lng": -21.9156, "caseNo": "USK26050106", "fnr": null, "desc": "breyta innra skipulagi og innrétta verslun í rými 0101 í verslunar-og íbúðarhúsi, mhl.01, á lóð nr. 27 við Snorrabraut", "decisionCode": "samthykkt", "date": "2026-06-23", "fund": 1262, "sizeM2": null, "sizeM3": null}, {"addr": "Stefnisvogur 1", "postnr": 104, "hverfi": "Sundahöfn", "lat": 64.13552, "lng": -21.84035, "caseNo": "USK26030118", "fnr": null, "desc": "breyta erindi USK24070158, með síðari breytingum, þannig að svalagangar húsa 1 og 2 eru glerjaðir, bílakjallara er komið fyrir undir húsum 3 og 4 og íbúðum fjölgað um 6 í hvoru húsi auk þess sem breytingar hafa orðið á útliti og stærð húsa 3 og 4, auk þess sem brunavarnir, rýmisnúmer, stærðir og skráningartafla hafa verið uppfærð fyrir fjölbýlishús á 1- 4 á lóð nr. 1 við Stefnisvog", "decisionCode": "frestad", "date": "2026-06-23", "fund": 1262, "sizeM2": null, "sizeM3": null}, {"addr": "Úlfarsbraut 12", "postnr": 113, "hverfi": "Úlfarsárdalur", "lat": 64.13367, "lng": -21.74658, "caseNo": "USK26040396", "fnr": null, "desc": "breyta erindi BN034775 með því að taka í notkun óuppfyllt rými og innrétta sem geymslu í kjallara parhúss nr. 12 á lóð nr. 10-12 við Úlfarsbraut", "decisionCode": "samthykkt", "date": "2026-06-23", "fund": 1262, "sizeM2": 39.0, "sizeM3": 99.6}, {"addr": "Ystibær 9", "postnr": 110, "hverfi": "Árbær", "lat": 64.11723, "lng": -21.81289, "caseNo": "USK26040151", "fnr": null, "desc": "breyta erindi BN060765, vegna lokaúttektar í einbýlishúsi á lóð nr. 9 við Ystabæ", "decisionCode": "frestad", "date": "2026-06-23", "fund": 1262, "sizeM2": null, "sizeM3": null}, {"addr": "Brautarholt 32", "postnr": 105, "hverfi": "Holt", "lat": 64.1409, "lng": -21.90212, "caseNo": "USK26050485", "fnr": null, "desc": "byggja 5- hæða fjölbýlishús með 20 íbúðum auk bílakjallara með 16 bílastæðum á lóð nr. 32 við Brautarholt", "decisionCode": "frestad", "date": "2026-06-16", "fund": 1261, "sizeM2": null, "sizeM3": null}, {"addr": "Hlésgata 2", "postnr": 101, "hverfi": "Vesturhöfn", "lat": 64.15181, "lng": -21.94726, "caseNo": "USK25120059", "fnr": null, "desc": "byggja steinsteypt 3-4 hæða fjölbýlishús með 67 íbúðum á bílakjallara með 31 bílastæði á lóð nr. 2 við Hlésgötu", "decisionCode": "frestad", "date": "2026-06-16", "fund": 1261, "sizeM2": null, "sizeM3": null}, {"addr": "Hraunbær 102", "postnr": 110, "hverfi": "Árbær", "lat": 64.11776, "lng": -21.79737, "caseNo": "USK26050359", "fnr": null, "desc": "að breyta innra skipulagi og innrétta veitingastað í flokki II, tegund A í stað bensínstöðvar í verslunarhúsi, mhl. 03, á lóð nr. 102 við Hraunbæ", "decisionCode": "frestad", "date": "2026-06-16", "fund": 1261, "sizeM2": null, "sizeM3": null}, {"addr": "Hrísrimi 15", "postnr": 112, "hverfi": "Rimar", "lat": 64.14406, "lng": -21.79478, "caseNo": "USK26050310", "fnr": null, "desc": "breyta bílageymslu í geymslu og innrétta baðherbergi í hluta af geymslunni sem verður aðgengilegt frá íbúðarrými i húsi á lóð nr. 15 við Hrísrima", "decisionCode": "frestad", "date": "2026-06-16", "fund": 1261, "sizeM2": null, "sizeM3": null}, {"addr": "Háaleitisbraut 68", "postnr": 103, "hverfi": "Leiti", "lat": 64.12816, "lng": -21.8874, "caseNo": "USK26060017", "fnr": null, "desc": "breyta innra skipulagi og innrétta læknastöð í kjallara, 1. og 2. hæð og koma fyrir hurð á suðurhlið skrifstofuhúss á lóð nr. 68 við Háaleitisbraut", "decisionCode": "frestad", "date": "2026-06-16", "fund": 1261, "sizeM2": null, "sizeM3": null}, {"addr": "Kringlan 4-12", "postnr": null, "hverfi": null, "lat": null, "lng": null, "caseNo": "USK26050104", "fnr": null, "desc": "innrétta veitingastað í flokki I, teg. C í rými S-334 og til að innrétta verslun í rými S-332 í mhl 02 í verslunarmiðstöð á lóð nr. 4-12 við Kringluna", "decisionCode": "samthykkt", "date": "2026-06-16", "fund": 1261, "sizeM2": null, "sizeM3": null}, {"addr": "Kringlan 4-12", "postnr": null, "hverfi": null, "lat": null, "lng": null, "caseNo": "USK26050033", "fnr": null, "desc": "útbúa þaksvalir út frá matsvæði, rými 0201 í mhl. 02 á 3. hæð í verslunarhúsi á lóð nr. 4-6 við Kringluna", "decisionCode": "frestad", "date": "2026-06-16", "fund": 1261, "sizeM2": null, "sizeM3": null}, {"addr": "Laufásvegur 18", "postnr": 101, "hverfi": "Þingholt", "lat": 64.14395, "lng": -21.93801, "caseNo": "USK26020044", "fnr": null, "desc": "endurnýja þak, setja kvist á götuhlið, hækka þak að garðhlið og bæta við svölum á 3. hæð í fjölbýlishúsi á lóð nr. 18 við Laufásveg", "decisionCode": "frestad", "date": "2026-06-16", "fund": 1261, "sizeM2": null, "sizeM3": null}, {"addr": "Laugarnesvegur 91", "postnr": 105, "hverfi": "Lækir", "lat": 64.1506, "lng": -21.88448, "caseNo": "USK25070326", "fnr": null, "desc": "breyta innra skipulagi þannig að flóttaleiðum frá kennslurýmum á jarðhæð og samkomusal á úr sal á 1. hæð Listaháskóla Íslands er breytt í húsi á lóð nr. 91 við Laugarnesveg", "decisionCode": "frestad", "date": "2026-06-16", "fund": 1261, "sizeM2": null, "sizeM3": null}, {"addr": "Tryggvagata 17", "postnr": 101, "hverfi": "Miðbær", "lat": 64.14906, "lng": -21.94047, "caseNo": "USK26050460", "fnr": null, "desc": null, "decisionCode": "frestad", "date": "2026-06-16", "fund": 1261, "sizeM2": null, "sizeM3": null}, {"addr": "Ármúli 32", "postnr": 108, "hverfi": "Mýrar og Múlar", "lat": 64.13519, "lng": -21.87711, "caseNo": "USK26060016", "fnr": null, "desc": "samræma mhl. 01 og 02, klæða húsið með viðhaldsfrírri veðurkápu og setja skyggni á hús nr. 32 við Ármúla", "decisionCode": "frestad", "date": "2026-06-16", "fund": 1261, "sizeM2": null, "sizeM3": null}, {"addr": "Bolholt 4", "postnr": 105, "hverfi": "Holt", "lat": 64.14006, "lng": -21.89618, "caseNo": "USK26010268", "fnr": null, "desc": "leyfi til þess að breyta erindi USK25040306 þannig að rými 0401 og 0402 eru sameinuð, innra skipulagi er breitt og innréttaðar læknastofur og viðtalsherbergi auk starfsmannaðstöðu á 4. hæð í skrifstofuhúsi, mhl.01, á lóð nr. 4 við Bolholt", "decisionCode": "frestad", "date": "2026-06-16", "fund": 1261, "sizeM2": null, "sizeM3": null}, {"addr": "Bústaðavegur 97", "postnr": 108, "hverfi": "Gerði", "lat": 64.12235, "lng": -21.87164, "caseNo": "USK26050183", "fnr": null, "desc": "breyta erindi BN054829 þannig að innra skipulagi íbúðar 0201 er breytt í íbúðarhúsi á lóð nr. 97 við Bústaðaveg", "decisionCode": "frestad", "date": "2026-06-16", "fund": 1261, "sizeM2": null, "sizeM3": null}, {"addr": "Eldshöfði 2A", "postnr": null, "hverfi": null, "lat": null, "lng": null, "caseNo": "USK26050385", "fnr": null, "desc": "leyfi fyrir dreifistöð Veitna á lóð nr. 2A við Eldshöfða", "decisionCode": "frestad", "date": "2026-06-16", "fund": 1261, "sizeM2": null, "sizeM3": null}, {"addr": "Hagatorg 1 (15.5--.97)", "postnr": 107, "hverfi": "Melar", "lat": 64.14145, "lng": -21.95259, "caseNo": "USK26040333", "fnr": null, "desc": "sameina undir eitt málsnúmer stofnerindi BN061414, USK23060270, USK23100364, USK24020129, USK24060326, USK24090120, USK24100247, USK25010125 og USK25050362 auk breytingarerinda vegna lokaúttektar á hótel- veitinga- og skrifstofuhúsi á lóð nr. 1 við Hagatorg", "decisionCode": "frestad", "date": "2026-06-16", "fund": 1261, "sizeM2": null, "sizeM3": null}, {"addr": "Laugateigur 14", "postnr": 105, "hverfi": "Teigar", "lat": 64.14337, "lng": -21.88952, "caseNo": "USK26050440", "fnr": null, "desc": "byggja vinnustofu, mhl. 03 á lóð nr. 14 við Laugateig", "decisionCode": "frestad", "date": "2026-06-16", "fund": 1261, "sizeM2": 32.4, "sizeM3": 109.9}, {"addr": "Rauðalækur 45", "postnr": 105, "hverfi": "Lækir", "lat": 64.15004, "lng": -21.8772, "caseNo": "USK26060136", "fnr": null, "desc": null, "decisionCode": "frestad", "date": "2026-06-16", "fund": 1261, "sizeM2": null, "sizeM3": null}, {"addr": "Skarfabakki (án lóðar)", "postnr": null, "hverfi": null, "lat": null, "lng": null, "caseNo": "USK26020154", "fnr": null, "desc": "stöðuleyfi fyrir tjaldi fyrir 300 manns auk salernisþjónustu til að þjónusta farþegum skemmtiferðaskipa, staðsett tímabundið utan lóðar við Korngarða 13 á Skarfabakka", "decisionCode": "frestad", "date": "2026-06-16", "fund": 1261, "sizeM2": null, "sizeM3": null}, {"addr": "Stefnisvogur 54", "postnr": null, "hverfi": null, "lat": null, "lng": null, "caseNo": "USK26040023", "fnr": null, "desc": "byggja tvö 3- 7 hæða fjölbýlishús með 86 íbúðum á sameiginlegum bílakjallara með 72 bílastæðum, geymslum og tæknirýmum á lóð nr. 54 við Stefnisvog", "decisionCode": "frestad", "date": "2026-06-16", "fund": 1261, "sizeM2": null, "sizeM3": null}, {"addr": "Suðurlandsbraut 40", "postnr": null, "hverfi": null, "lat": null, "lng": null, "caseNo": "USK26030032", "fnr": null, "desc": "breyta innra skipulagi í íbúðum 05-0102, 05-0203, 05-0305, 05-0805, 06-0802 ásamt því að breyta skráningu á rýmum í kjallara fjölbýlishúss á lóð nr. 40 við Suðurlandsbraut", "decisionCode": "frestad", "date": "2026-06-16", "fund": 1261, "sizeM2": null, "sizeM3": null}, {"addr": "Borgartún 28", "postnr": 105, "hverfi": "Tún", "lat": 64.14582, "lng": -21.89727, "caseNo": "USK26040166", "fnr": null, "desc": "koma fyrir nýrri flóttahurð á vesturhlið 1. hæðar, breyta notkun og innrétta sem geymslurými með samtals ? geymslum til útleigu á 1. hæð og í kjallara rýmis 0102 í verslunarhúsi, mhl.05, á lóð nr. 28 við Borgartún", "decisionCode": "frestad", "date": "2026-06-16", "fund": 1261, "sizeM2": null, "sizeM3": null}, {"addr": "Gjúkabryggja 8", "postnr": 110, "hverfi": "Bryggjuhverfi", "lat": 64.13339, "lng": -21.82381, "caseNo": "USK26020157", "fnr": null, "desc": "byggja 3 til 4 hæða steinsteypt fjölbýlishús með 110 íbúðum á sameiginlegum bílakjallara með 57 stæðum á lóð nr. 8 við Gjúkabryggju", "decisionCode": "frestad", "date": "2026-06-16", "fund": 1261, "sizeM2": null, "sizeM3": null}, {"addr": "Grensásvegur 1", "postnr": 108, "hverfi": "Skeifan", "lat": 64.13331, "lng": -21.87192, "caseNo": "USK26060111", "fnr": null, "desc": "leyfi til þess að breyta erindi BN058350, með síðari breytingum BN059226, BN060034 og USK25030284, vegna lokaúttektar þannig staðsetningu stiglagnar er breytt í bílakjallara, mhl. 05, á lóð nr. 1 við Grensásveg", "decisionCode": "frestad", "date": "2026-06-16", "fund": 1261, "sizeM2": null, "sizeM3": null}, {"addr": "Grensásvegur 1C", "postnr": 108, "hverfi": "Skeifan", "lat": 64.13258, "lng": -21.8716, "caseNo": "USK26050312", "fnr": null, "desc": "breyta notkun og nýta 14 íbúðir sem hótelíbúðir í flokki lV í fjölbýlis- og verslunarhúsi við Grensásveg 1C, mhl.04, á lóð nr. 1 við Grensásveg", "decisionCode": "frestad", "date": "2026-06-16", "fund": 1261, "sizeM2": null, "sizeM3": null}, {"addr": "Úlfarsbraut 12", "postnr": 113, "hverfi": "Úlfarsárdalur", "lat": 64.13367, "lng": -21.74658, "caseNo": "USK26040396", "fnr": null, "desc": "stækka, með því að taka í notkun óuppfyllt rými og innrétta sem geymslu í kjallara parhúss nr. 12 á lóð nr. 10-12 við Úlfarsbraut", "decisionCode": "frestad", "date": "2026-06-16", "fund": 1261, "sizeM2": 39.0, "sizeM3": 99.6}, {"addr": "Amtmannsstígur 6", "postnr": 101, "hverfi": "Þingholt", "lat": 64.146, "lng": -21.9352, "caseNo": "USK26040215", "fnr": null, "desc": "breyta ytra byrði ,einangra og klæða með bárujárni tvíbýlishús á lóð nr.6 við Amtmannsstíg", "decisionCode": "frestad", "date": "2026-06-16", "fund": 1261, "sizeM2": null, "sizeM3": null}, {"addr": "Arnarhlíð 8", "postnr": 102, "hverfi": "Hlíðarendi", "lat": 64.13291, "lng": -21.92904, "caseNo": "USK26050387", "fnr": null, "desc": "leyfi fyrir svalaskýlum á allar svalir húsanna á lóð nr. 6-8 við Smyrilshlíð, 3 við Fálkahlíð, 12-18 við Smyrilshlíð og 19-21 við Hlíðarfót", "decisionCode": "frestad", "date": "2026-06-16", "fund": 1261, "sizeM2": null, "sizeM3": null}, {"addr": "Barónsstígur 3", "postnr": 101, "hverfi": "Skuggahverfi", "lat": 64.14461, "lng": -21.91784, "caseNo": "USK26040020", "fnr": null, "desc": "innrétta hárgreiðslustofu og íbúð í rými 0101 í húsi á lóð nr. 3 við Barónsstíg", "decisionCode": "frestad", "date": "2026-06-16", "fund": 1261, "sizeM2": null, "sizeM3": null}, {"addr": "Barónsstígur 34", "postnr": 101, "hverfi": "Þingholt", "lat": 64.14126, "lng": -21.92457, "caseNo": "USK26050388", "fnr": null, "desc": "breyta innra skipulagi, m.a. byggja milligólf í leikfimisal, mhl. 02, innrétta þar matsal og bókasafn og garð á þaki, gera tvö ný stigahús, koma fyrir lyftum, innrétta eldhús og fjölnotasal í mhl. 03 og innrétta grunnskóla fyrir 250 nemendur í efri bekkjum grunnskóla í Vörðuskóla á lóð nr. 34 við Barónsstíg", "decisionCode": "frestad", "date": "2026-06-16", "fund": 1261, "sizeM2": null, "sizeM3": null}, {"addr": "Bárugata 22", "postnr": 101, "hverfi": "Vesturbær", "lat": 64.14953, "lng": -21.94769, "caseNo": "USK25090414", "fnr": null, "desc": "gera svalir á vesturgafl íbúðar 0201 á 2. hæð í íbúðarhúsi á lóð nr. 22 við Bárugötu", "decisionCode": "frestad", "date": "2026-06-16", "fund": 1261, "sizeM2": null, "sizeM3": null}, {"addr": "Bæjarflöt 13", "postnr": 112, "hverfi": "Flatir", "lat": 64.1431, "lng": -21.80157, "caseNo": "USK26050384", "fnr": null, "desc": null, "decisionCode": "frestad", "date": "2026-06-16", "fund": 1261, "sizeM2": null, "sizeM3": null}, {"addr": "Engjavegur 7", "postnr": 104, "hverfi": "Laugardalur", "lat": 64.14209, "lng": -21.87845, "caseNo": "USK26020094", "fnr": null, "desc": "koma fyrir einingahúsi, mhl.04, úr yleiningum, með salernis- og búningsaðstöðu við gervigrasvöll íþróttafélagsins Þróttar á lóð nr. 7 við Engjaveg", "decisionCode": "frestad", "date": "2026-06-16", "fund": 1261, "sizeM2": 44.4, "sizeM3": 6.0}, {"addr": "Faxafen 10", "postnr": 108, "hverfi": "Skeifan", "lat": 64.12905, "lng": -21.86683, "caseNo": "USK26040066", "fnr": null, "desc": "leyfi um áðurgerðar framkvæmdir þar sem búið er að sameina tvo eignarhluta, rými 0103 og 0104, breyta innra skipulagi og innrétta sem sólbaðs- og nuddstofu verslunarrými á 1. hæð í verslunar- og skrifstofuhúsi á lóð nr. 10 við Faxafen", "decisionCode": "samthykkt", "date": "2026-06-16", "fund": 1261, "sizeM2": null, "sizeM3": null}, {"addr": "Fornhagi 26", "postnr": 107, "hverfi": "Hagar", "lat": 64.14036, "lng": -21.96325, "caseNo": "USK26040305", "fnr": null, "desc": "leyfi fyrir áðurgerðum breytingum þar sem búið er stækka anddyri á íbúð 0301 í fjölbýlishúsi á lóð nr. 26 við Fornhaga", "decisionCode": "samthykkt", "date": "2026-06-16", "fund": 1261, "sizeM2": null, "sizeM3": null}, {"addr": "Freyjubrunnur 7", "postnr": 113, "hverfi": "Úlfarsárdalur", "lat": 64.13411, "lng": -21.74548, "caseNo": "USK26030189", "fnr": null, "desc": "innrétta íverurými í óuppfylltum sökklum, jafnframt því sem gerð er grein fyrir áður gerðum breytingum sem felast í að gerðir hafa verið gluggar og hurðir á báðar hliðar og lóð tekin niður við suðvesturhlið parhúss nr. 7, mhl. 01 á lóð nr. 7-9 við Freyjubrunn", "decisionCode": "frestad", "date": "2026-06-16", "fund": 1261, "sizeM2": null, "sizeM3": null}, {"addr": "Freyjubrunnur 9", "postnr": 113, "hverfi": "Úlfarsárdalur", "lat": 64.13414, "lng": -21.74558, "caseNo": "USK26030211", "fnr": null, "desc": "innrétta íverurými í óuppfylltum sökklum og setja upp svalalokun, jafnframt því sem gerð er grein fyrir áður gerðum breytingum sem felast í að gerðir hafa verið gluggar og hurðir á báðar hliðar og lóð tekin niður við suðvesturhlið parhúss nr. 9, mhl. 02 á lóð nr. 7-9 við Freyjubrunn", "decisionCode": "frestad", "date": "2026-06-16", "fund": 1261, "sizeM2": null, "sizeM3": null}, {"addr": "Freyjugata 43", "postnr": 101, "hverfi": "Þingholt", "lat": 64.14062, "lng": -21.92796, "caseNo": "USK25110055", "fnr": null, "desc": "breyta innra skipulagi þannig að eldhús 1. hæðar er fært til, og opnað út á upphækkaða verönd með hurð á suðurgafli, hluti af kjallara er innréttaður sem íbúð og gluggar eru síkkaðir á austurhlið einbýlishúss á lóð nr. 43 við Freyjugötu", "decisionCode": "samthykkt", "date": "2026-06-16", "fund": 1261, "sizeM2": null, "sizeM3": null}, {"addr": "Fálkagata 2", "postnr": 107, "hverfi": "Hagar", "lat": 64.13739, "lng": -21.95483, "caseNo": "USK26020319", "fnr": null, "desc": "breyta erindi USK24050293 þannig að grunnmynd kjallara er bætt við og innra skipulagi breytt í íbúð 0201 í verslunar- og skrifstofuhúsi á lóð nr. 2 við Fálkagötu", "decisionCode": "samthykkt", "date": "2026-06-16", "fund": 1261, "sizeM2": null, "sizeM3": null}, {"addr": "Grettisgata 53B", "postnr": 101, "hverfi": "Þingholt", "lat": 64.14369, "lng": -21.92096, "caseNo": "USK26050391", "fnr": null, "desc": "leyfi fyrir áður gerðum breytingum sem felast í að innréttuð hefur verið íbúð þar sem áður var geymsla og þvottahús í rými 0001 í fjölbýlishúsi á lóð i nr. 53B við Grettisgötu", "decisionCode": "frestad", "date": "2026-06-16", "fund": 1261, "sizeM2": null, "sizeM3": null}, {"addr": "Grettisgata 71", "postnr": 101, "hverfi": "Þingholt", "lat": 64.143, "lng": -21.91866, "caseNo": "USK26030030", "fnr": null, "desc": "breyta erindi USK25080155 þannig að eignum er fjölgað með því að skipta íbúð 0401 í stúdíóíbúð 0401 og íbúð 0402 á rishæð íbúðarhúss á lóð nr. 71 við Grettisgötu", "decisionCode": "samthykkt", "date": "2026-06-16", "fund": 1261, "sizeM2": null, "sizeM3": null}, {"addr": "Grænahlíð 24", "postnr": 105, "hverfi": "Hlíðar", "lat": 64.13159, "lng": -21.9023, "caseNo": "USK26050418", "fnr": null, "desc": "breyta erindi USK25120218 þannig að innra skipulagi í starfsmannahúsi er breytt í leikskólanum Björtuhlíð á lóð nr. 24 við Grænuhlíð", "decisionCode": "samthykkt", "date": "2026-06-16", "fund": 1261, "sizeM2": null, "sizeM3": null}, {"addr": "Guðrúnartún 1", "postnr": 105, "hverfi": "Tún", "lat": 64.1452, "lng": -21.91334, "caseNo": "USK26050284", "fnr": null, "desc": "breyta erindi USK24070209 þannig að brunavörnum og brunamerkingum er breytt á 3. hæð í skrifstofuhúsi á lóð nr. 1 við Guðrúnartún", "decisionCode": "samthykkt", "date": "2026-06-16", "fund": 1261, "sizeM2": null, "sizeM3": null}, {"addr": "Hallgerðargata 13", "postnr": 105, "hverfi": "Teigar", "lat": 64.14829, "lng": -21.89032, "caseNo": "USK26040192", "fnr": null, "desc": "innrétta skrifstofur og skipta í tvennt rými 0101 á 1. hæð í íbúðar- og atvinnuhúsi á lóð nr. 13 við Hallgerðargötu", "decisionCode": "frestad", "date": "2026-06-16", "fund": 1261, "sizeM2": null, "sizeM3": null}, {"addr": "Helluland 1-19 2-24", "postnr": 108, "hverfi": "Fossvogur", "lat": 64.11968, "lng": -21.87233, "caseNo": "USK26020183", "fnr": null, "desc": "breyta erindi BN059290 vegna athugasemda við lokaúttekt í raðhúsi nr.1 við Helluland", "decisionCode": "samthykkt", "date": "2026-06-16", "fund": 1261, "sizeM2": null, "sizeM3": null}, {"addr": "Kleppsvegur Kleppur", "postnr": null, "hverfi": null, "lat": null, "lng": null, "caseNo": "USK26060109", "fnr": null, "desc": "breyta erindi USK25100418 vegna lokaúttektar með því að breyta eldvarnaskilgreiningu á hurðum á réttargeðdeild á 1. hæð Kleppsspítala, mhl. 05 á lóðinni Kleppsvegur Kleppur", "decisionCode": "frestad", "date": "2026-06-16", "fund": 1261, "sizeM2": null, "sizeM3": null}, {"addr": "Kringlan 7", "postnr": 103, "hverfi": "Kringla", "lat": 64.13139, "lng": -21.89702, "caseNo": "USK26050419", "fnr": null, "desc": "innrétta kennslu- og æfingarými fyrir nemendur Hárakademíunnar í rými 0004, koma fyrir tæknirými og gera glugga í stað hurðar á austurhlið húss nr. 7 við Kringluna", "decisionCode": "frestad", "date": "2026-06-16", "fund": 1261, "sizeM2": null, "sizeM3": null}, {"addr": "Kristínargata 3", "postnr": null, "hverfi": null, "lat": null, "lng": null, "caseNo": "USK26030212", "fnr": null, "desc": "byggja steinsteypt rannsóknar- og skrifstofuhús, fjórar hæðir á kjallara með x stæðum og verður tæknisetur fyrir Vísindagarða Háskóla Íslands á lóð nr. 3 við Kristínargötu", "decisionCode": "frestad", "date": "2026-06-16", "fund": 1261, "sizeM2": null, "sizeM3": null}, {"addr": "Ljósaland 20", "postnr": 108, "hverfi": "Fossvogur", "lat": 64.1185, "lng": -21.85839, "caseNo": "USK26050441", "fnr": null, "desc": "breyta erindi USK25100225 þannig að gluggasetningu er breytt og komið fyrir rennihurð út í garð á suðurhlið raðahúss við Ljósaland 20, mhl. 23, á lóð nr, 1- 25/2-24 við Ljósaland", "decisionCode": "samthykkt", "date": "2026-06-16", "fund": 1261, "sizeM2": null, "sizeM3": null}, {"addr": "Lundahólar 5", "postnr": 111, "hverfi": "Hólar", "lat": 64.11106, "lng": -21.81491, "caseNo": "USK24020163", "fnr": null, "desc": "byggja frístandandi hús, mhl. 02, og innrétta þar aukaíbúð við einbýlishús á lóð nr. 5 við Lundahóla", "decisionCode": "samthykkt", "date": "2026-06-16", "fund": 1261, "sizeM2": 40.0, "sizeM3": 132.0}, {"addr": "Lágmúli 4", "postnr": 108, "hverfi": "Mýrar og Múlar", "lat": 64.13913, "lng": -21.8923, "caseNo": "USK26010307", "fnr": null, "desc": "sameina rými 0001, 0002 og 0101, koma fyrir stiga á milli hæða og innrétta sem skrifstofur í verslunar- og skrifstofuhúsi á lóð nr. 4 við Lágmúla", "decisionCode": "frestad", "date": "2026-06-16", "fund": 1261, "sizeM2": null, "sizeM3": null}, {"addr": "Mjölnisholt 6", "postnr": 105, "hverfi": "Holt", "lat": 64.14265, "lng": -21.91038, "caseNo": "USK25050444", "fnr": null, "desc": "breyta erindi BN052156 þannig að komið er fyrir utanáliggjandi stigahúsi á bakhlið, eldri stigar fjarlægðir og gerðir inngangar frá svölum, bætt við íbúð í risi og byggður geymsluskúr á baklóð fjölbýlishúss á lóð nr. 6 við Mjölnisholt", "decisionCode": "frestad", "date": "2026-06-16", "fund": 1261, "sizeM2": 52.0, "sizeM3": 164.7}, {"addr": "Nesvík", "postnr": null, "hverfi": null, "lat": null, "lng": null, "caseNo": "USK26040423", "fnr": null, "desc": "setja niður fullbyggt frístundahús á lóðinni Nesvík", "decisionCode": "frestad", "date": "2026-06-16", "fund": 1261, "sizeM2": null, "sizeM3": null}, {"addr": "Norðlingabraut 12", "postnr": 110, "hverfi": "Norðlingaholt", "lat": 64.10304, "lng": -21.76899, "caseNo": "USK26050285", "fnr": null, "desc": "stækka til vesturs íþróttahús á lóð nr. 12 við Norðlingabraut", "decisionCode": "samthykkt", "date": "2026-06-16", "fund": 1261, "sizeM2": 562.0, "sizeM3": null}, {"addr": "Nýlendugata 21", "postnr": 101, "hverfi": "Vesturbær", "lat": 64.15091, "lng": -21.94797, "caseNo": "USK26060160", "fnr": null, "desc": "breyta erindi USK25010219 þannig að til viðbótar við þegar samþykkta niðurrif matshluta 2 og 3 bætist við niðurrif á skrifstofu- og vörugeymsluhúsi, mhl.01, á lóð nr. 21 við Nýlendugötu", "decisionCode": "frestad", "date": "2026-06-16", "fund": 1261, "sizeM2": null, "sizeM3": null}, {"addr": "Seljavegur 13", "postnr": 101, "hverfi": "Vesturbær", "lat": 64.15116, "lng": -21.95451, "caseNo": "USK26040021", "fnr": null, "desc": "breyta innra skipulagi í rými 0301 og mynda þannig sjálfstæða fasteign í tvíbýlishúsi á lóð nr. 13 við Seljaveg", "decisionCode": "frestad", "date": "2026-06-16", "fund": 1261, "sizeM2": null, "sizeM3": null}, {"addr": "Skipholt 21", "postnr": 105, "hverfi": "Holt", "lat": 64.14104, "lng": -21.90451, "caseNo": "USK26050105", "fnr": null, "desc": "á breyta skráningu á rými 0101 í húsi á lóð nr. 21 við Skipholt. Matshlutinn er nú skráður sem skrifstofa en yrði á 1. hæð skráður sem listgallerí í notkunarflokki II og á efri hæð gististaður í flokki 4", "decisionCode": "frestad", "date": "2026-06-16", "fund": 1261, "sizeM2": null, "sizeM3": null}, {"addr": "Snorrabraut 85", "postnr": 105, "hverfi": "Norðurmýri", "lat": 64.13726, "lng": -21.92232, "caseNo": "USK26020022", "fnr": null, "desc": "skipta einni íbúð á 1. hæð í tvær íbúðir. Svölum bætt við sem flóttaleið í fjölbýlishúsi á lóð nr. 85 við Snorrabraut", "decisionCode": "frestad", "date": "2026-06-16", "fund": 1261, "sizeM2": null, "sizeM3": null}, {"addr": "Spítalastígur 4B", "postnr": 101, "hverfi": "Þingholt", "lat": 64.14444, "lng": -21.93459, "caseNo": "USK26050236", "fnr": null, "desc": "breyta erindi USK23110280 þannig að innra skipulagi er breytt, geymslur í kjallara eru sameinaðar tómstundarýmum, svalahandriðum er breytt og brunavarnir eru uppfærðar í íbúðarhúsi á lóð nr. 4B við Spítalastíg", "decisionCode": "frestad", "date": "2026-06-16", "fund": 1261, "sizeM2": null, "sizeM3": null}, {"addr": "Spítalastígur 6B", "postnr": 101, "hverfi": "Þingholt", "lat": 64.14441, "lng": -21.93412, "caseNo": "USK26050237", "fnr": null, "desc": "breyta erindi USK23110281 þannig að innra skipulagi er breytt, geymslur í kjallara eru sameinaðar tómstundarýmum, svalahandriðum er breytt og brunavarnir eru uppfærðar í íbúðarhúsi á lóð nr. 6B við Spítalastíg", "decisionCode": "frestad", "date": "2026-06-16", "fund": 1261, "sizeM2": null, "sizeM3": null}, {"addr": "Stangarholt 4", "postnr": 105, "hverfi": "Holt", "lat": 64.14104, "lng": -21.90951, "caseNo": "USK24110371", "fnr": null, "desc": "breyta BN057607 vegna lokaúttektar þannig að notkun rýmis 0102 breytt í íbúð og komið er fyrir þakglugga á bílskúr, mhl.02, við íbúðarhús, á lóð nr. 4 við Stangarholt", "decisionCode": "samthykkt", "date": "2026-06-16", "fund": 1261, "sizeM2": null, "sizeM3": null}, {"addr": "Sundaborg 15", "postnr": 104, "hverfi": "Sundahöfn", "lat": 64.14963, "lng": -21.8677, "caseNo": "USK26030425", "fnr": null, "desc": "breyta erindi USK24040342 vegna lokaúttektar þannig að brunamerkingu hurða er breytt í vörugeymslu á lóð nr. 15 við Sundaborg", "decisionCode": "frestad", "date": "2026-06-16", "fund": 1261, "sizeM2": null, "sizeM3": null}, {"addr": "Suðurhólar 10", "postnr": 111, "hverfi": "Berg", "lat": 64.10749, "lng": -21.81753, "caseNo": "USK25020231", "fnr": null, "desc": "leyfi til þess að breyta innra og ytra byrði og byggja yfir inngarð skólahúsnæðis Hólabrekkuskóla á lóð nr.10 við Suðurhóla", "decisionCode": "samthykkt", "date": "2026-06-16", "fund": 1261, "sizeM2": null, "sizeM3": null}, {"addr": "Sóltún 26", "postnr": 105, "hverfi": "Tún", "lat": 64.14421, "lng": -21.89352, "caseNo": "USK26050461", "fnr": null, "desc": "breyta innra skipulagi í tannlæknastofu á fjórðu hæð húss á lóð nr. 26 við Sóltún", "decisionCode": "frestad", "date": "2026-06-16", "fund": 1261, "sizeM2": null, "sizeM3": null}, {"addr": "Sólvallagata 67", "postnr": 101, "hverfi": "Vesturbær", "lat": 64.14975, "lng": -21.9579, "caseNo": "USK26050048", "fnr": null, "desc": "breyta innra skipulagi á 1. og 2. hæð í Vesturbæjarskóla á lóð nr. 67 við Sólvallagötu", "decisionCode": "samthykkt", "date": "2026-06-16", "fund": 1261, "sizeM2": null, "sizeM3": null}, {"addr": "Traðarland 1", "postnr": 108, "hverfi": "Fossvogur", "lat": 64.11784, "lng": -21.8516, "caseNo": "USK26030521", "fnr": null, "desc": "á lóð nr. 1 við Traðarland (svæði Knattspyrnufélagsins Víkings) leyfi til að breyta flokkun veitingastaðar í fl. II, teg. G og í áhorfendastúku að setja upp veitingastaði í fl. I teg. C og fl. II teg. F", "decisionCode": "samthykkt", "date": "2026-06-16", "fund": 1261, "sizeM2": null, "sizeM3": null}, {"addr": "Valshlíð 14", "postnr": 102, "hverfi": "Hlíðarendi", "lat": 64.13391, "lng": -21.92757, "caseNo": "USK25090280", "fnr": null, "desc": "byggja sólskála á þakverönd íbúðar 0415 við Valshlíð 14, mhl.01, á lóð nr. 2 við Arnarhlíð", "decisionCode": "samthykkt", "date": "2026-06-16", "fund": 1261, "sizeM2": null, "sizeM3": null}, {"addr": "Viðarhöfða 3", "postnr": 110, "hverfi": "Höfðar", "lat": 64.12492, "lng": -21.79617, "caseNo": "USK26050451", "fnr": null, "desc": "stöðuleyfi fyrir 20 feta kæligám til 12 mánaða við norðurhlið iðnaðarhúss á lóð nr. 3 við Viðarhöfða", "decisionCode": "samthykkt", "date": "2026-06-16", "fund": 1261, "sizeM2": null, "sizeM3": null}, {"addr": "Ystibær 13", "postnr": 110, "hverfi": "Árbær", "lat": 64.11682, "lng": -21.81314, "caseNo": "USK25110030", "fnr": null, "desc": "sameina matshluta, og fyrir áður gerðum breytingum sem felst í þar sem áður var sólskáli hefur verið byggð viðbygging við austurhlið einbýlishúss á lóð nr. 13 við Ystabæ", "decisionCode": "samthykkt", "date": "2026-06-16", "fund": 1261, "sizeM2": 34.1, "sizeM3": 97.9}, {"addr": "Þingholtsstræti 29A", "postnr": 101, "hverfi": "Þingholt", "lat": 64.14386, "lng": -21.93628, "caseNo": "USK26050108", "fnr": null, "desc": "breyta erindi BN048605, með síðari breytingu BN061539, þannig að útliti og innra skipulagi er breytt, súlur á lóðarmörkum hækkaðar og gerð grein fyrir áður gerðum garðskúr við hús á lóð nr29A við Þingholtsstræti", "decisionCode": "frestad", "date": "2026-06-16", "fund": 1261, "sizeM2": null, "sizeM3": null}, {"addr": "Hraunbær 102", "postnr": 110, "hverfi": "Árbær", "lat": 64.11776, "lng": -21.79737, "caseNo": "USK26050359", "fnr": null, "desc": "að breyta innra skipulagi og innrétta veitingastað í flokki II, í stað bensínstöðvar, mhl. 03, verslunarhúsi á lóð nr. 102 við Hraunbæ", "decisionCode": "frestad", "date": "2026-06-09", "fund": 1260, "sizeM2": null, "sizeM3": null}, {"addr": "Lækjargata 4", "postnr": 101, "hverfi": "Miðbær", "lat": 64.14688, "lng": -21.93739, "caseNo": "USK26050049", "fnr": null, "desc": "breyta innra skipulagi og innrétta framleiðslueldhús í kjallara og veitingastað í fl. II, teg. ? í rými 0101 á 1. hæð, jafnframt því að komið verður fyrir afgreiðslulúgu á bakhlið húss á lóð nr. 4 við Lækjargötu", "decisionCode": "frestad", "date": "2026-06-09", "fund": 1260, "sizeM2": null, "sizeM3": null}, {"addr": "Skeifan 11C", "postnr": 108, "hverfi": "Skeifan", "lat": 64.13076, "lng": -21.86843, "caseNo": "USK26040255", "fnr": null, "desc": "breyta erindi USK25090130 þannig að innra skipulagi skyndibitastaðar, veitingastað í flokki l tegund c fyrir mest 20 gesti er breytt í rými 0102 á 1. hæð í verslunar- og skrifstofuhúsi við Skeifuna 11c, mhl.03, á lóð nr. 11 við Skeifuna", "decisionCode": "frestad", "date": "2026-06-09", "fund": 1260, "sizeM2": null, "sizeM3": null}, {"addr": "Stjörnugróf 9 (18.9--.99)", "postnr": 108, "hverfi": "Fossvogur", "lat": 64.11858, "lng": -21.85046, "caseNo": "USK26020186", "fnr": null, "desc": "breyta að reisa gróðurhús ásamt pökkunaraðstöðu og starfsmannarýmum, mhl.0?, á lóð nr. 9 við Stjörnugróf", "decisionCode": "frestad", "date": "2026-06-09", "fund": 1260, "sizeM2": 521.8, "sizeM3": null}, {"addr": "Vagnhöfði 5", "postnr": 110, "hverfi": "Höfðar", "lat": 64.12659, "lng": -21.81931, "caseNo": "USK26050315", "fnr": null, "desc": "bæta brunavarnir og flóttaleiðir, breyta innra skipulagi og útliti iðnaðar- og skrifstofuhúss á lóð nr. 5 við Vagnhöfða", "decisionCode": "frestad", "date": "2026-06-09", "fund": 1260, "sizeM2": null, "sizeM3": null}, {"addr": "Vesturgata 3", "postnr": 101, "hverfi": "Miðbær", "lat": 64.1488, "lng": -21.94213, "caseNo": "USK26050337", "fnr": null, "desc": "breyta innra skipulagi í kjallara og á fyrstu hæð og innrétta veitingastað í flokki ll, tegund ? fyrir ? gesti í rými 0101 í veitinga- og íbúðarhúsi, mhl. 01, á lóð nr. 3 við Vesturgötu", "decisionCode": "frestad", "date": "2026-06-09", "fund": 1260, "sizeM2": null, "sizeM3": null}, {"addr": "Borgartún 1", "postnr": 105, "hverfi": "Tún", "lat": 64.14536, "lng": -21.91142, "caseNo": "USK26050149", "fnr": null, "desc": "breyta erindi USK25060187 þannig að innra skipulagi í kjallara er breytt og skráningartafla uppfærð fyrir hótel á lóð nr. 1 við Borgartún", "decisionCode": "frestad", "date": "2026-06-09", "fund": 1260, "sizeM2": null, "sizeM3": null}, {"addr": "Grensásvegur 50", "postnr": 108, "hverfi": "Gerði", "lat": 64.12618, "lng": -21.87847, "caseNo": "USK26050314", "fnr": null, "desc": "innrétta hárgreiðslustofu í rými x mhl. x á lóð nr. 50 við Grensásveg", "decisionCode": "frestad", "date": "2026-06-09", "fund": 1260, "sizeM2": null, "sizeM3": null}, {"addr": "Hafnarstræti 7", "postnr": 101, "hverfi": "Miðbær", "lat": 64.14829, "lng": -21.93945, "caseNo": "USK26050365", "fnr": null, "desc": "breyta innra skipulagi 1. og 2. hæðar í verslunar- og skrifstofuhúsi, mhl.02, á lóð nr. 7 við Hafnarstræti", "decisionCode": "frestad", "date": "2026-06-09", "fund": 1260, "sizeM2": null, "sizeM3": null}, {"addr": "Hagatorg 1 (15.5--.97)", "postnr": 107, "hverfi": "Melar", "lat": 64.14145, "lng": -21.95259, "caseNo": "USK26040333", "fnr": null, "desc": "sameina undir eitt málsnúmer stofnerindi BN061414, USK23060270, USK23100364, USK24020129, USK24060326, USK24090120, USK24100247, USK25010125 og USK25050362 auk breytingarerinda vegna lokaúttektar á hótel- veitinga- og skrifstofuhúsi á lóð nr. 1 við Hagatorg", "decisionCode": "frestad", "date": "2026-06-09", "fund": 1260, "sizeM2": null, "sizeM3": null}, {"addr": "Hjallavegur 30", "postnr": 104, "hverfi": "Laugarás", "lat": 64.1442, "lng": -21.86111, "caseNo": "USK26050396", "fnr": null, "desc": "stækka með viðbyggingu til vesturs íbúð 0101 í tvíbýlishúsi á lóð nr. 30 við Hjallaveg", "decisionCode": "frestad", "date": "2026-06-09", "fund": 1260, "sizeM2": 23.4, "sizeM3": 81.9}, {"addr": "Hverafold 1-3", "postnr": 112, "hverfi": "Foldir", "lat": 64.13458, "lng": -21.79896, "caseNo": "USK26060035", "fnr": null, "desc": "breyta erindi USK24120098 þannig að innra skipulagi og brunavörnum er breytt í rými 0103 í verslunar- og iðnaðarhúsi á lóð nr. 1-3 við Hverafold", "decisionCode": "frestad", "date": "2026-06-09", "fund": 1260, "sizeM2": null, "sizeM3": null}, {"addr": "Kringlan 1", "postnr": 103, "hverfi": "Kringla", "lat": 64.12955, "lng": -21.89879, "caseNo": "USK26020321", "fnr": null, "desc": "byggja bílakjallara á tveimur hæðum, K1 og K2, með 154 stæðum og kemur til með að þjóna átta 4-9 hæða fjölbýlishúsum með 151 íbúð á reit A, á lóð nr. 1 við Kringluna", "decisionCode": "samthykkt", "date": "2026-06-09", "fund": 1260, "sizeM2": null, "sizeM3": null}, {"addr": "Lækjargata 1", "postnr": 101, "hverfi": "Þingholt", "lat": 64.1473, "lng": -21.93527, "caseNo": "USK26050308", "fnr": null, "desc": "byggja skrifstofuhús á tveim hæðum auk kjallara, mhl. 02, á lóð nr. 1 við Lækjargötu", "decisionCode": "frestad", "date": "2026-06-09", "fund": 1260, "sizeM2": null, "sizeM3": null}, {"addr": "Lækjargata 1", "postnr": 101, "hverfi": "Þingholt", "lat": 64.1473, "lng": -21.93527, "caseNo": "USK26050309", "fnr": null, "desc": "leyfi til breyta innra skipulagi og rífa anddyri á austurhlið Stjórnarráðs Íslands, skrifstofuhúss, mhl.01, á lóð nr. 1 við Lækjargötu. Minnkun: xx.x ferm., xx.x rúmm", "decisionCode": "frestad", "date": "2026-06-09", "fund": 1260, "sizeM2": null, "sizeM3": null}, {"addr": "Malarhöfði 2", "postnr": 110, "hverfi": "Höfðar", "lat": 64.12477, "lng": -21.83577, "caseNo": "USK25100142", "fnr": null, "desc": "leyfi fyrir áður gerðum breytingum byggðum á erindi BN048604, samþykktu 22. desember 2014 í rými 0201 verslunar- og skrifstofuhúsi við Malarhöfða 2, mhl.02, á lóð nr. 2-2A við Malarhöfða", "decisionCode": "frestad", "date": "2026-06-09", "fund": 1260, "sizeM2": null, "sizeM3": null}, {"addr": "Skarfabakki (án lóðar)", "postnr": null, "hverfi": null, "lat": null, "lng": null, "caseNo": "USK26020154", "fnr": null, "desc": "stöðuleyfi fyrir tjaldi (20x52 m) til eins árs auk salernisaðstöðu sem ætlað er til að þjóna farþegum skemmtiferðaskipa og er staðsett án lóðar", "decisionCode": "frestad", "date": "2026-06-09", "fund": 1260, "sizeM2": null, "sizeM3": null}, {"addr": "Skógarhlíð 12", "postnr": 105, "hverfi": "Hlíðar", "lat": 64.13335, "lng": -21.91967, "caseNo": "USK26050340", "fnr": null, "desc": "breyta innra skipulagi í norðurhluta 5. hæðar, rými X í skrifstofuhúsi á lóð nr. 12 við Skógarhlíð", "decisionCode": "frestad", "date": "2026-06-09", "fund": 1260, "sizeM2": null, "sizeM3": null}, {"addr": "Staðarbakki 26", "postnr": 109, "hverfi": "Bakkar", "lat": 64.10871, "lng": -21.83983, "caseNo": "USK26040399", "fnr": null, "desc": "setja svalalokun á svalir efri hæðar og nýja útihurð á austurhlið neðri hæðar raðhúss á lóð nr. 26 við Staðarbakka", "decisionCode": "frestad", "date": "2026-06-09", "fund": 1260, "sizeM2": null, "sizeM3": null}, {"addr": "Torfufell 23", "postnr": 111, "hverfi": "Fell", "lat": 64.10006, "lng": -21.81915, "caseNo": "USK26050338", "fnr": null, "desc": "koma fyrir fjarskiptabúnaði á norðurgafl fjölbýlishúss á lóð nr. 23 við Torfufell. Hæð súlu 4 metrar", "decisionCode": "frestad", "date": "2026-06-09", "fund": 1260, "sizeM2": null, "sizeM3": null}, {"addr": "Depluhólar 2", "postnr": 111, "hverfi": "Hólar", "lat": 64.11109, "lng": -21.82023, "caseNo": "USK26050360", "fnr": null, "desc": "innrétta vinnustofu í bílageymslu og byggja 1,8 metra háan steyptan vegg á lóðarmörk á lóð nr. 2 við Depluhóla", "decisionCode": "frestad", "date": "2026-06-09", "fund": 1260, "sizeM2": null, "sizeM3": null}, {"addr": "Eyjarslóð 9", "postnr": 101, "hverfi": "Örfirisey", "lat": 64.15923, "lng": -21.93955, "caseNo": "USK26010076", "fnr": null, "desc": "skipta rými 0102 sem er verkstæði, í tvær eignir, koma fyrir iðnaðarhurð á suðurhlið og innrétta geymslur á 1. hæð í mhl. 01 á lóð nr. 9 við Eyjarslóð", "decisionCode": "frestad", "date": "2026-06-09", "fund": 1260, "sizeM2": null, "sizeM3": null}, {"addr": "Geirsgata 9", "postnr": 101, "hverfi": "Vesturhöfn", "lat": 64.15054, "lng": -21.94301, "caseNo": "USK26010342", "fnr": null, "desc": "breyta innra skipulagi í veitingastað í fl. II, teg. a fyrir 96 gesti á 1. hæð og í kjallara húss á lóð nr. 9 við Geirsgötu", "decisionCode": "frestad", "date": "2026-06-09", "fund": 1260, "sizeM2": null, "sizeM3": null}, {"addr": "Grensásvegur 1C", "postnr": 108, "hverfi": "Skeifan", "lat": 64.13258, "lng": -21.8716, "caseNo": "USK26050312", "fnr": null, "desc": "breyta notkun og nýta 14 íbúðir sem hótelíbúðir í flokki lV í fjölbýlis- og verslunarhúsi við Grensásveg 1C, mhl.04, á lóð nr. 1 við Grensásveg", "decisionCode": "frestad", "date": "2026-06-09", "fund": 1260, "sizeM2": null, "sizeM3": null},