{"updated":"2026-07-15T08:42:01.445Z","source":"Heilbrigðiseftirlit Reykjavíkur (her.reykjavik.is)","scope":"Reykjavík — opinbert matvæla-/heilbrigðiseftirlit, kvarði 0–5 (0 verst)","labels":{"0":"Starfsemi stöðvuð","1":"Starfsemi takmörkuð / stöðvuð að hluta","2":"Aðkallandi frávik / ábendingar","3":"Frávik / ábendingar","4":"Fáein frávik / ábendingar","5":"Kröfur uppfylltar / fáeinar ábendingar"},"count":699,"avg":3.15,"dist":[5,16,164,257,195,62],"stadir":[{"name":"Mötuneyti Umhverfis- og orkustofnunar","kt":"7009241650","street":"Suðurlandsbraut 24","postnr":"108","city":"Reykjavík","rating":0,"ratingLabel":"Starfsemi stöðvuð","lastInspection":"24. september 2025","lastInspectionISO":"2025-09-24","uuid":"198bfbdd-51e9-58da-91cd-2078ba73a952","reportUrl":"https://her.reykjavik.is/embed/198bfbdd-51e9-58da-91cd-2078ba73a952/","lat":64.137057,"lng":-21.876709},{"name":"Grillhúsið Sprengisandi","kt":"5107022470","street":"Bústaðavegi 153","postnr":"108","city":"Reykjavík","rating":0,"ratingLabel":"Starfsemi stöðvuð","lastInspection":"29. júlí 2025","lastInspectionISO":"2025-07-29","uuid":"c0a9f3da-9622-5fde-93a2-1440f35ef45a","reportUrl":"https://her.reykjavik.is/embed/c0a9f3da-9622-5fde-93a2-1440f35ef45a/","lat":64.120563,"lng":-21.848096},{"name":"Hlemmur - Banh Mi - Laugavegi 107 - Hlemmi","kt":"5404060280","street":"Laugavegi 107","postnr":"101","city":"Reykjavík","rating":0,"ratingLabel":"Starfsemi stöðvuð","lastInspection":"21. nóvember 2023","lastInspectionISO":"2023-11-21","uuid":"6a651605-1e5a-542d-a47d-c260a52fbd6c","reportUrl":"https://her.reykjavik.is/embed/6a651605-1e5a-542d-a47d-c260a52fbd6c/","lat":64.143212,"lng":-21.914158},{"name":"Grandi mathöll - Gastro Truck","kt":"6112942989","street":"Grandagarði 16","postnr":"801","city":"Selfoss","rating":0,"ratingLabel":"Starfsemi stöðvuð","lastInspection":"7. nóvember 2023","lastInspectionISO":"2023-11-07","uuid":"5686f932-b1a3-551d-860a-69afc47157f8","reportUrl":"https://her.reykjavik.is/embed/5686f932-b1a3-551d-860a-69afc47157f8/","lat":64.154558,"lng":-21.944096},{"name":"Götun og Skart","kt":"1605733929","street":"Hverfisgötu 108","postnr":"101","city":"Reykjavík","rating":0,"ratingLabel":"Starfsemi stöðvuð","lastInspection":"1. júní 2021","lastInspectionISO":"2021-06-01","uuid":"bc59c098-85d9-5a04-841a-130a2910d0e8","reportUrl":"https://her.reykjavik.is/embed/bc59c098-85d9-5a04-841a-130a2910d0e8/","lat":64.143799,"lng":-21.916322},{"name":"Ísbúðin Háaleiti - Háaleitisbraut 58","kt":"6210240190","street":"Háaleitisbraut 58, 108","postnr":null,"city":null,"rating":1,"ratingLabel":"Starfsemi takmörkuð / stöðvuð að hluta","lastInspection":"10. mars 2026","lastInspectionISO":"2026-03-10","uuid":"e062d344-df1f-5ce5-82dd-beb3ef91b854","reportUrl":"https://her.reykjavik.is/embed/e062d344-df1f-5ce5-82dd-beb3ef91b854/","lat":64.132657,"lng":-21.883465},{"name":"Gandhi indverskur veitingastaður","kt":"5812983669","street":"Bergstaðastræti 13","postnr":"101","city":"Reykjavík","rating":1,"ratingLabel":"Starfsemi takmörkuð / stöðvuð að hluta","lastInspection":"13. janúar 2026","lastInspectionISO":"2026-01-13","uuid":"78577a59-f72d-5f6f-af2f-d310992e541e","reportUrl":"https://her.reykjavik.is/embed/78577a59-f72d-5f6f-af2f-d310992e541e/","lat":64.14461,"lng":-21.932979},{"name":"Skúli Craft bar","kt":"7108111050","street":"Aðalstræti 9","postnr":"101","city":"Reykjavík","rating":1,"ratingLabel":"Starfsemi takmörkuð / stöðvuð að hluta","lastInspection":"9. júlí 2025","lastInspectionISO":"2025-07-09","uuid":"521c6fa4-204d-57a9-9daa-f4680ca1ea01","reportUrl":"https://her.reykjavik.is/embed/521c6fa4-204d-57a9-9daa-f4680ca1ea01/","lat":64.147628,"lng":-21.941773},{"name":"Ísbúðin Hlemmur","kt":"6707230700","street":"Snorrabraut 29","postnr":"101","city":"Reykjavík","rating":1,"ratingLabel":"Starfsemi takmörkuð / stöðvuð að hluta","lastInspection":"9. júlí 2025","lastInspectionISO":"2025-07-09","uuid":"95f37bed-0e02-536c-a81e-158d02d5c322","reportUrl":"https://her.reykjavik.is/embed/95f37bed-0e02-536c-a81e-158d02d5c322/","lat":64.143346,"lng":-21.91589},{"name":"Kringlan mathöll Kúmen - Indian Bites","kt":"6611241130","street":"Kringlan 4-12","postnr":null,"city":null,"rating":1,"ratingLabel":"Starfsemi takmörkuð / stöðvuð að hluta","lastInspection":"9. maí 2025","lastInspectionISO":"2025-05-09","uuid":"1b61363c-cc2f-5219-8cbb-1144a0e588d7","reportUrl":"https://her.reykjavik.is/embed/1b61363c-cc2f-5219-8cbb-1144a0e588d7/","lat":64.131215,"lng":-21.895295},{"name":"Krambúðin Grímsbæ","kt":"5712983769","street":"Efstalandi 26","postnr":"108","city":"Reykjavík","rating":1,"ratingLabel":"Starfsemi takmörkuð / stöðvuð að hluta","lastInspection":"13. nóvember 2024","lastInspectionISO":"2024-11-13","uuid":"f6585ab4-eac4-5af9-90c4-3992777d6db1","reportUrl":"https://her.reykjavik.is/embed/f6585ab4-eac4-5af9-90c4-3992777d6db1/","lat":64.122109,"lng":-21.875234},{"name":"Reykjavík Röst Bistró","kt":"6403090160","street":"Geirsgötu 5b og c","postnr":"101","city":"Reykjavík","rating":1,"ratingLabel":"Starfsemi takmörkuð / stöðvuð að hluta","lastInspection":"19. apríl 2023","lastInspectionISO":"2023-04-19","uuid":"65c28994-e6cb-58ff-98d1-f0992be0b155","reportUrl":"https://her.reykjavik.is/embed/65c28994-e6cb-58ff-98d1-f0992be0b155/","lat":64.150912,"lng":-21.943687},{"name":"Prinsinn","kt":"4604201720","street":"Hraunbæ 121","postnr":"110","city":"Reykjavík","rating":1,"ratingLabel":"Starfsemi takmörkuð / stöðvuð að hluta","lastInspection":"23. júní 2022","lastInspectionISO":"2022-06-23","uuid":"8959cb72-ca38-5b3b-b4a7-f7791a1b5213","reportUrl":"https://her.reykjavik.is/embed/8959cb72-ca38-5b3b-b4a7-f7791a1b5213/","lat":64.118004,"lng":-21.795653},{"name":"Mathöll Borgartúni - Bál Vín &amp; Grill","kt":"6310200540","street":"Borgartún 29","postnr":"105","city":"Reykjavík","rating":1,"ratingLabel":"Starfsemi takmörkuð / stöðvuð að hluta","lastInspection":"23. maí 2022","lastInspectionISO":"2022-05-23","uuid":"486a5c65-b6fe-5dd1-82cd-f71b6e263d09","reportUrl":"https://her.reykjavik.is/embed/486a5c65-b6fe-5dd1-82cd-f71b6e263d09/","lat":64.146195,"lng":-21.899358},{"name":"10-11","kt":"5902691749","street":"Austurstræti 17","postnr":"101","city":"Reykjavík","rating":1,"ratingLabel":"Starfsemi takmörkuð / stöðvuð að hluta","lastInspection":"13. desember 2021","lastInspectionISO":"2021-12-13","uuid":"a910e92c-ce3e-51ca-b164-fa67bcf5107f","reportUrl":"https://her.reykjavik.is/embed/a910e92c-ce3e-51ca-b164-fa67bcf5107f/","lat":64.147613,"lng":-21.937679},{"name":"Majó bakari - Laugarnesvegi 91","kt":null,"street":"Laugarnesvegi 91","postnr":null,"city":null,"rating":1,"ratingLabel":"Starfsemi takmörkuð / stöðvuð að hluta","lastInspection":"13. desember 2021","lastInspectionISO":"2021-12-13","uuid":"382c575c-1708-532a-a59e-603ac840cffe","reportUrl":"https://her.reykjavik.is/embed/382c575c-1708-532a-a59e-603ac840cffe/","lat":64.150596,"lng":-21.884477},{"name":"Mathöll Höfða - Hipstur ehf","kt":"6611180240","street":"Bíldshöfði 9","postnr":"110","city":"Reykjavík","rating":1,"ratingLabel":"Starfsemi takmörkuð / stöðvuð að hluta","lastInspection":"17. mars 2021","lastInspectionISO":"2021-03-17","uuid":"96124ede-a90d-5cff-82a3-bf83e9465788","reportUrl":"https://her.reykjavik.is/embed/96124ede-a90d-5cff-82a3-bf83e9465788/","lat":64.126346,"lng":-21.821376},{"name":"Verslunin Álfheimar ehf","kt":"7110131480","street":"Álfheimum 2","postnr":"104","city":"Reykjavík","rating":1,"ratingLabel":"Starfsemi takmörkuð / stöðvuð að hluta","lastInspection":"9. desember 2020","lastInspectionISO":"2020-12-09","uuid":"2804e518-baee-50f0-a828-910b07e84714","reportUrl":"https://her.reykjavik.is/embed/2804e518-baee-50f0-a828-910b07e84714/","lat":64.137469,"lng":-21.859113},{"name":"KjötMat Meistari ehf","kt":"6203190230","street":"Hólagarður, Lóuhólum 2-4","postnr":"111","city":"Reykjavík","rating":1,"ratingLabel":"Starfsemi takmörkuð / stöðvuð að hluta","lastInspection":"3. september 2020","lastInspectionISO":"2020-09-03","uuid":"11b1a5d0-b247-5e0a-870c-2a89497db158","reportUrl":"https://her.reykjavik.is/embed/11b1a5d0-b247-5e0a-870c-2a89497db158/","lat":64.108963,"lng":-21.815972},{"name":"Hlemmur Square","kt":"5106120780","street":"Laugavegi 105","postnr":"105","city":"Reykjavík","rating":1,"ratingLabel":"Starfsemi takmörkuð / stöðvuð að hluta","lastInspection":"29. júní 2020","lastInspectionISO":"2020-06-29","uuid":"e6a38035-5e24-5962-b3f6-d9aedaaaba38","reportUrl":"https://her.reykjavik.is/embed/e6a38035-5e24-5962-b3f6-d9aedaaaba38/","lat":64.143296,"lng":-21.914908},{"name":"Orange Project kaffihús","kt":"4406141240","street":"Ármúla 4-6","postnr":"108","city":"Reykjavík","rating":1,"ratingLabel":"Starfsemi takmörkuð / stöðvuð að hluta","lastInspection":"17. apríl 2019","lastInspectionISO":"2019-04-17","uuid":"b3760931-b7bf-595d-b85b-070b18f7f747","reportUrl":"https://her.reykjavik.is/embed/b3760931-b7bf-595d-b85b-070b18f7f747/","lat":64.137855,"lng":-21.887113},{"name":"Mötuneyti Eimskips í Vöruhótelinu","kt":"6607720229","street":"Sundabakka 2","postnr":"104","city":"Reykjavík","rating":2,"ratingLabel":"Aðkallandi frávik / ábendingar","lastInspection":"16. apríl 2026","lastInspectionISO":"2026-04-16","uuid":"150719a0-1cd1-50e9-819e-ad179e9ff9a6","reportUrl":"https://her.reykjavik.is/embed/150719a0-1cd1-50e9-819e-ad179e9ff9a6/","lat":64.149394,"lng":-21.862221},{"name":"Ísbúð Vesturbæjar","kt":"5206022750","street":"Hagamel 67","postnr":"107","city":"Reykjavík","rating":2,"ratingLabel":"Aðkallandi frávik / ábendingar","lastInspection":"16. febrúar 2026","lastInspectionISO":"2026-02-16","uuid":"3b0d1942-923f-573c-b1c2-c33f546d9d01","reportUrl":"https://her.reykjavik.is/embed/3b0d1942-923f-573c-b1c2-c33f546d9d01/","lat":64.145802,"lng":-21.962596},{"name":"Celsus - Ægisíðu 121","kt":"7011013320","street":"Ægisíðu 121","postnr":"107","city":"Reykjavík","rating":2,"ratingLabel":"Aðkallandi frávik / ábendingar","lastInspection":"10. febrúar 2026","lastInspectionISO":"2026-02-10","uuid":"b04b0c07-0304-5166-ac67-3fb7a92adb2e","reportUrl":"https://her.reykjavik.is/embed/b04b0c07-0304-5166-ac67-3fb7a92adb2e/","lat":64.14414,"lng":-21.968772},{"name":"Ísbúðin Fákafeni","kt":"6004200620","street":"Fákafeni 9","postnr":"108","city":"Reykjavík","rating":2,"ratingLabel":"Aðkallandi frávik / ábendingar","lastInspection":"10. febrúar 2026","lastInspectionISO":"2026-02-10","uuid":"b50051ad-6785-500a-81f6-e90df9f11271","reportUrl":"https://her.reykjavik.is/embed/b50051ad-6785-500a-81f6-e90df9f11271/","lat":64.129656,"lng":-21.865045},{"name":"Tokyo Sushi (Little Tokyo)","kt":"6707100920","street":"Fiskislóð 15-21","postnr":"101","city":"Reykjavík","rating":2,"ratingLabel":"Aðkallandi frávik / ábendingar","lastInspection":"21. janúar 2026","lastInspectionISO":"2026-01-21","uuid":"124e64b6-1920-5b6c-992a-3ed093457ea7","reportUrl":"https://her.reykjavik.is/embed/124e64b6-1920-5b6c-992a-3ed093457ea7/","lat":64.155372,"lng":-21.949858},{"name":"Kaffi Rosenberg","kt":"4605200450","street":"Vesturgötu 3","postnr":"101","city":"Reykjavík","rating":2,"ratingLabel":"Aðkallandi frávik / ábendingar","lastInspection":"12. september 2025","lastInspectionISO":"2025-09-12","uuid":"2dc04503-d2f1-5eac-9bb9-33c539811152","reportUrl":"https://her.reykjavik.is/embed/2dc04503-d2f1-5eac-9bb9-33c539811152/","lat":64.148805,"lng":-21.942129},{"name":"Kaffi Laugalækur","kt":"4205162660","street":"Laugarnesveg 74a","postnr":"105","city":"Reykjavík","rating":2,"ratingLabel":"Aðkallandi frávik / ábendingar","lastInspection":"17. júlí 2025","lastInspectionISO":"2025-07-17","uuid":"82c1cd8c-5233-5b14-b8c4-d32474083f3b","reportUrl":"https://her.reykjavik.is/embed/82c1cd8c-5233-5b14-b8c4-d32474083f3b/","lat":64.143045,"lng":-21.898759},{"name":"Garðsapótek - Sogavegi 108","kt":"6502992649","street":"Sogavegi 108","postnr":"108","city":"Reykjavík","rating":2,"ratingLabel":"Aðkallandi frávik / ábendingar","lastInspection":"16. júlí 2025","lastInspectionISO":"2025-07-16","uuid":"51434dd9-dac8-51e8-b1f0-05bd746fb5b6","reportUrl":"https://her.reykjavik.is/embed/51434dd9-dac8-51e8-b1f0-05bd746fb5b6/","lat":64.125746,"lng":-21.862995},{"name":"Ölver Sport og kareoke bar","kt":"4912972639","street":"Álfheimum 74","postnr":"104","city":"Reykjavík","rating":2,"ratingLabel":"Aðkallandi frávik / ábendingar","lastInspection":"16. júlí 2025","lastInspectionISO":"2025-07-16","uuid":"e04cff43-bd6f-512c-8490-08ea03cb86a0","reportUrl":"https://her.reykjavik.is/embed/e04cff43-bd6f-512c-8490-08ea03cb86a0/","lat":64.133686,"lng":-21.86832},{"name":"Seljahlíð- Mötuneyti Aldraðra","kt":"4304861529","street":"Hjallaseli 55, 109","postnr":null,"city":null,"rating":2,"ratingLabel":"Aðkallandi frávik / ábendingar","lastInspection":"11. júlí 2025","lastInspectionISO":"2025-07-11","uuid":"3ad0ec32-b909-5ca6-86a1-4a0961b3e984","reportUrl":"https://her.reykjavik.is/embed/3ad0ec32-b909-5ca6-86a1-4a0961b3e984/","lat":64.096915,"lng":-21.841574},{"name":"Mathöll Höfða - Gastro Truck","kt":"6812210930","street":"Bíldshöfði 9","postnr":"110","city":"Reykjavík","rating":2,"ratingLabel":"Aðkallandi frávik / ábendingar","lastInspection":"7. júlí 2025","lastInspectionISO":"2025-07-07","uuid":"9179f7ed-77f7-5737-ae1a-fd7f182558c2","reportUrl":"https://her.reykjavik.is/embed/9179f7ed-77f7-5737-ae1a-fd7f182558c2/","lat":64.126346,"lng":-21.821376},{"name":"Mötuneyti Heilsugæslu höfuðborgarsvæðisins","kt":"5210050760","street":"Þönglabakka 1","postnr":"109","city":"Reykjavík","rating":2,"ratingLabel":"Aðkallandi frávik / ábendingar","lastInspection":"4. júlí 2025","lastInspectionISO":"2025-07-04","uuid":"d5ff2931-56e2-5e26-a21c-5d75707f3ba1","reportUrl":"https://her.reykjavik.is/embed/d5ff2931-56e2-5e26-a21c-5d75707f3ba1/","lat":64.108711,"lng":-21.842582},{"name":"Mötuneyti Flytjanda","kt":"6607720229","street":"Klettagörðum 15","postnr":"104","city":"Reykjavík","rating":2,"ratingLabel":"Aðkallandi frávik / ábendingar","lastInspection":"19. júní 2025","lastInspectionISO":"2025-06-19","uuid":"a4d6da0c-df9f-5bfb-a0d4-74dae9c95fb3","reportUrl":"https://her.reykjavik.is/embed/a4d6da0c-df9f-5bfb-a0d4-74dae9c95fb3/","lat":64.153603,"lng":-21.871441},{"name":"Mötuneyti aldraðra Sóltúni","kt":"6003005390","street":"Sóltúni 2","postnr":"105","city":"Reykjavík","rating":2,"ratingLabel":"Aðkallandi frávik / ábendingar","lastInspection":"4. mars 2025","lastInspectionISO":"2025-03-04","uuid":"e9cff49c-051f-5546-b041-7958f29897c7","reportUrl":"https://her.reykjavik.is/embed/e9cff49c-051f-5546-b041-7958f29897c7/","lat":64.144166,"lng":-21.900771},{"name":"Mötuneyti Morgunblaðsins","kt":"4301691069","street":"Hádegismóar 2","postnr":"110","city":"Reykjavík","rating":2,"ratingLabel":"Aðkallandi frávik / ábendingar","lastInspection":"3. mars 2025","lastInspectionISO":"2025-03-03","uuid":"76645543-685f-57d2-b6be-90035aad6d7a","reportUrl":"https://her.reykjavik.is/embed/76645543-685f-57d2-b6be-90035aad6d7a/","lat":64.113835,"lng":-21.774343},{"name":"Mötuneyti Lyfjastofnunar","kt":"6709002740","street":"Vínlandsleið 14","postnr":"113","city":"Reykjavík","rating":2,"ratingLabel":"Aðkallandi frávik / ábendingar","lastInspection":"20. febrúar 2025","lastInspectionISO":"2025-02-20","uuid":"d29ba604-738e-5a66-b889-99deec6ff939","reportUrl":"https://her.reykjavik.is/embed/d29ba604-738e-5a66-b889-99deec6ff939/","lat":64.130363,"lng":-21.765523},{"name":"Mathöll Pósthússtræti - Djúsí Sushi","kt":"6012212090","street":"Pósthússtræti 3-5","postnr":"101","city":"Reykjavík","rating":2,"ratingLabel":"Aðkallandi frávik / ábendingar","lastInspection":"3. febrúar 2025","lastInspectionISO":"2025-02-03","uuid":"435b688e-6e93-527f-b64d-fc2a93cbc94f","reportUrl":"https://her.reykjavik.is/embed/435b688e-6e93-527f-b64d-fc2a93cbc94f/","lat":64.147872,"lng":-21.938159},{"name":"Polo - Hraunbæ 121","kt":"5910170630","street":"Hraunbæ 121","postnr":"110","city":"Reykjavík","rating":2,"ratingLabel":"Aðkallandi frávik / ábendingar","lastInspection":"29. janúar 2025","lastInspectionISO":"2025-01-29","uuid":"2998bcf7-dd8e-5f28-8578-8a2dfde2ae4d","reportUrl":"https://her.reykjavik.is/embed/2998bcf7-dd8e-5f28-8578-8a2dfde2ae4d/","lat":64.118004,"lng":-21.795653},{"name":"Pizzan","kt":"6810161200","street":"Hringbraut 119","postnr":"101","city":"Reykjavík","rating":2,"ratingLabel":"Aðkallandi frávik / ábendingar","lastInspection":"16. janúar 2025","lastInspectionISO":"2025-01-16","uuid":"6ee05005-cfb7-5d60-84b9-59bc85770ce2","reportUrl":"https://her.reykjavik.is/embed/6ee05005-cfb7-5d60-84b9-59bc85770ce2/","lat":64.150187,"lng":-21.960146},{"name":"Enski barinn","kt":"6009070850","street":"Austurstræti 12","postnr":"101","city":"Reykjavík","rating":2,"ratingLabel":"Aðkallandi frávik / ábendingar","lastInspection":"14. janúar 2025","lastInspectionISO":"2025-01-14","uuid":"d800a04c-e180-5748-b7d3-e30d31b54810","reportUrl":"https://her.reykjavik.is/embed/d800a04c-e180-5748-b7d3-e30d31b54810/","lat":64.147594,"lng":-21.939339},{"name":"Mötuneyti Nordic Visitor","kt":"6904050590","street":"Bíldshöfða 20","postnr":"110","city":"Reykjavík","rating":2,"ratingLabel":"Aðkallandi frávik / ábendingar","lastInspection":"22. október 2024","lastInspectionISO":"2024-10-22","uuid":"8e9b9b31-22a4-5221-8da6-215d5c123506","reportUrl":"https://her.reykjavik.is/embed/8e9b9b31-22a4-5221-8da6-215d5c123506/","lat":64.125178,"lng":-21.814647},{"name":"Pizzan - Hverafold 1-5","kt":"6810161200","street":"Hverafold 1-3","postnr":"112","city":"Reykjavík","rating":2,"ratingLabel":"Aðkallandi frávik / ábendingar","lastInspection":"15. október 2024","lastInspectionISO":"2024-10-15","uuid":"cdf07ff2-670c-5657-b699-345db9c77d8b","reportUrl":"https://her.reykjavik.is/embed/cdf07ff2-670c-5657-b699-345db9c77d8b/","lat":64.134248,"lng":-21.798224},{"name":"Krambúðin - Skólavörðustíg 42","kt":"5712983769","street":"Skólavörðustíg 42, 101","postnr":null,"city":null,"rating":2,"ratingLabel":"Aðkallandi frávik / ábendingar","lastInspection":"1. október 2024","lastInspectionISO":"2024-10-01","uuid":"84d5de98-0eb1-50d6-ad38-28f6e1291b2d","reportUrl":"https://her.reykjavik.is/embed/84d5de98-0eb1-50d6-ad38-28f6e1291b2d/","lat":64.142844,"lng":-21.928538},{"name":"Mötuneyti Arnarhvoli","kt":"4201690439","street":"Arnarhvoli","postnr":"150","city":"Reykjavík","rating":2,"ratingLabel":"Aðkallandi frávik / ábendingar","lastInspection":"30. september 2024","lastInspectionISO":"2024-09-30","uuid":"a63da0ee-891a-5d9c-8708-cbae67ece681","reportUrl":"https://her.reykjavik.is/embed/a63da0ee-891a-5d9c-8708-cbae67ece681/","lat":64.146987,"lng":-21.940755},{"name":"Pizzan","kt":"6810161200","street":"Fellsmúla 26","postnr":"108","city":"Reykjavík","rating":2,"ratingLabel":"Aðkallandi frávik / ábendingar","lastInspection":"18. september 2024","lastInspectionISO":"2024-09-18","uuid":"214cf138-510d-5ede-898a-c2b536244817","reportUrl":"https://her.reykjavik.is/embed/214cf138-510d-5ede-898a-c2b536244817/","lat":64.130321,"lng":-21.876167},{"name":"101 Reykjavík Street Food","kt":"5405190800","street":"Skólavörðustíg 8","postnr":"101","city":"Reykjavík","rating":2,"ratingLabel":"Aðkallandi frávik / ábendingar","lastInspection":"2. september 2024","lastInspectionISO":"2024-09-02","uuid":"de5a480b-18a9-54ac-8942-0663d5694dc9","reportUrl":"https://her.reykjavik.is/embed/de5a480b-18a9-54ac-8942-0663d5694dc9/","lat":64.145888,"lng":-21.932671},{"name":"Mathöll Borgartúni - Jomo","kt":"4305242670","street":"Borgartún 29","postnr":"105","city":"Reykjavík","rating":2,"ratingLabel":"Aðkallandi frávik / ábendingar","lastInspection":"23. júlí 2024","lastInspectionISO":"2024-07-23","uuid":"af772653-59e5-547e-a33b-c5f1a8e86c4d","reportUrl":"https://her.reykjavik.is/embed/af772653-59e5-547e-a33b-c5f1a8e86c4d/","lat":64.146195,"lng":-21.899358},{"name":"Mötuneyti Fastus","kt":"6404061270","street":"Höfðabakka 7","postnr":"110","city":"Reykjavík","rating":2,"ratingLabel":"Aðkallandi frávik / ábendingar","lastInspection":"21. júní 2024","lastInspectionISO":"2024-06-21","uuid":"34577bad-dac0-5025-b4c8-47a605677063","reportUrl":"https://her.reykjavik.is/embed/34577bad-dac0-5025-b4c8-47a605677063/","lat":64.127071,"lng":-21.810093},{"name":"Hlemmur mathöll - Hello - Xin chao","kt":"6202243670","street":"Laugavegi 107","postnr":"101","city":"Reykjavík","rating":2,"ratingLabel":"Aðkallandi frávik / ábendingar","lastInspection":"19. júní 2024","lastInspectionISO":"2024-06-19","uuid":"87e8f2f8-5344-5d67-a3c1-d3531ed9ee62","reportUrl":"https://her.reykjavik.is/embed/87e8f2f8-5344-5d67-a3c1-d3531ed9ee62/","lat":64.143212,"lng":-21.914158},{"name":"Tokyo Sushi - Álfheimum 74","kt":"6707100920","street":"Álfheimum 74","postnr":"104","city":"Reykjavík","rating":2,"ratingLabel":"Aðkallandi frávik / ábendingar","lastInspection":"22. mars 2024","lastInspectionISO":"2024-03-22","uuid":"32b356ad-0c8d-5595-b9c4-075e674a2d2d","reportUrl":"https://her.reykjavik.is/embed/32b356ad-0c8d-5595-b9c4-075e674a2d2d/","lat":64.133686,"lng":-21.86832},{"name":"Matís ohf","kt":"6709060190","street":"Vínlandsleið 12","postnr":"113","city":"Reykjavík","rating":2,"ratingLabel":"Aðkallandi frávik / ábendingar","lastInspection":"13. febrúar 2024","lastInspectionISO":"2024-02-13","uuid":"98b81fb8-93b1-5bed-ab2b-ae53c30d507a","reportUrl":"https://her.reykjavik.is/embed/98b81fb8-93b1-5bed-ab2b-ae53c30d507a/","lat":64.129995,"lng":-21.76646},{"name":"Fönix veitingahús","kt":"5312110300","street":"Bíldshöfða 12","postnr":"110","city":"Reykjavík","rating":2,"ratingLabel":"Aðkallandi frávik / ábendingar","lastInspection":"29. janúar 2024","lastInspectionISO":"2024-01-29","uuid":"735885fa-dc9e-5dfd-9d0c-6a9f277eec98","reportUrl":"https://her.reykjavik.is/embed/735885fa-dc9e-5dfd-9d0c-6a9f277eec98/","lat":64.125175,"lng":-21.82075},{"name":"Reykjavík Downtown Hotel","kt":"4306190550","street":"Skólavörðustíg 42","postnr":"101","city":"Reykjavík","rating":2,"ratingLabel":"Aðkallandi frávik / ábendingar","lastInspection":"23. janúar 2024","lastInspectionISO":"2024-01-23","uuid":"7cbfaa04-5470-5aaf-a511-beb07f792c89","reportUrl":"https://her.reykjavik.is/embed/7cbfaa04-5470-5aaf-a511-beb07f792c89/","lat":64.142844,"lng":-21.928538},{"name":"Fjallkonan Kitchen &amp; Pub","kt":"5701190600","street":"Hafnarstræti 1-3","postnr":"101","city":"Reykjavík","rating":2,"ratingLabel":"Aðkallandi frávik / ábendingar","lastInspection":"23. janúar 2024","lastInspectionISO":"2024-01-23","uuid":"862f6b6b-42fc-5dc4-904a-13511b8104be","reportUrl":"https://her.reykjavik.is/embed/862f6b6b-42fc-5dc4-904a-13511b8104be/","lat":64.148465,"lng":-21.940779},{"name":"Kaffistofan Eirbergi","kt":"5401696249","street":"Eiríksgötu 34","postnr":"101","city":"Reykjavík","rating":2,"ratingLabel":"Aðkallandi frávik / ábendingar","lastInspection":"10. janúar 2024","lastInspectionISO":"2024-01-10","uuid":"5a6727d5-5313-5aec-ae51-1b35a4610c7d","reportUrl":"https://her.reykjavik.is/embed/5a6727d5-5313-5aec-ae51-1b35a4610c7d/","lat":64.143161,"lng":-21.937521},{"name":"Hlemmur mathöll - Fjárhúsið - Laugavegi 107","kt":"5808201820","street":"Laugavegi 107","postnr":"101","city":"Reykjavík","rating":2,"ratingLabel":"Aðkallandi frávik / ábendingar","lastInspection":"21. nóvember 2023","lastInspectionISO":"2023-11-21","uuid":"205257c0-2bb7-5640-b4f9-349a1b0e9dd8","reportUrl":"https://her.reykjavik.is/embed/205257c0-2bb7-5640-b4f9-349a1b0e9dd8/","lat":64.143212,"lng":-21.914158},{"name":"Majó bakari","kt":"0411585659","street":"Laugarnesvegi 91","postnr":null,"city":null,"rating":2,"ratingLabel":"Aðkallandi frávik / ábendingar","lastInspection":"20. nóvember 2023","lastInspectionISO":"2023-11-20","uuid":"900c8262-3d29-5a18-a8db-e78073afd05c","reportUrl":"https://her.reykjavik.is/embed/900c8262-3d29-5a18-a8db-e78073afd05c/","lat":64.150596,"lng":-21.884477},{"name":"Kaffi Holt","kt":"6202942099","street":"Kirkjustétt 2-6","postnr":"113","city":"Reykjavík","rating":2,"ratingLabel":"Aðkallandi frávik / ábendingar","lastInspection":"15. nóvember 2023","lastInspectionISO":"2023-11-15","uuid":"ea75c0b4-6de0-5714-b9e8-220fcf6551fc","reportUrl":"https://her.reykjavik.is/embed/ea75c0b4-6de0-5714-b9e8-220fcf6551fc/","lat":64.12625,"lng":-21.756645},{"name":"Mötuneyti Borgartúni 21","kt":"6403002050","street":"Borgartún 21","postnr":"105","city":"Reykjavík","rating":2,"ratingLabel":"Aðkallandi frávik / ábendingar","lastInspection":"8. nóvember 2023","lastInspectionISO":"2023-11-08","uuid":"1ee647c9-d72e-54b4-97a6-d838e44342d8","reportUrl":"https://her.reykjavik.is/embed/1ee647c9-d72e-54b4-97a6-d838e44342d8/","lat":64.146565,"lng":-21.901063},{"name":"Rangá sf. Matvöruverslun","kt":"4710131290","street":"Skipasundi 56","postnr":"104","city":"Reykjavík","rating":2,"ratingLabel":"Aðkallandi frávik / ábendingar","lastInspection":"23. október 2023","lastInspectionISO":"2023-10-23","uuid":"3a1a26ab-1c56-5257-ba2b-72e8c28752b9","reportUrl":"https://her.reykjavik.is/embed/3a1a26ab-1c56-5257-ba2b-72e8c28752b9/","lat":64.139847,"lng":-21.857353},{"name":"Mötuneyti Vífilfells","kt":"4701691419","street":"Stuðlahálsi 1","postnr":"110","city":"Reykjavík","rating":2,"ratingLabel":"Aðkallandi frávik / ábendingar","lastInspection":"18. október 2023","lastInspectionISO":"2023-10-18","uuid":"2ad7afae-212d-5212-adfd-bb8eeee9dbe2","reportUrl":"https://her.reykjavik.is/embed/2ad7afae-212d-5212-adfd-bb8eeee9dbe2/","lat":64.119148,"lng":-21.795481},{"name":"Mötuneyti aldraðra Vitatorg","kt":"5302697609","street":"Lindargötu 59","postnr":"101","city":"Reykjavík","rating":2,"ratingLabel":"Aðkallandi frávik / ábendingar","lastInspection":"17. október 2023","lastInspectionISO":"2023-10-17","uuid":"e04b14b5-74af-57b5-8572-348b15b310df","reportUrl":"https://her.reykjavik.is/embed/e04b14b5-74af-57b5-8572-348b15b310df/","lat":64.145869,"lng":-21.920917},{"name":"Nebraska","kt":"4605211650","street":"Barónsstíg 6","postnr":"101","city":"Reykjavík","rating":2,"ratingLabel":"Aðkallandi frávik / ábendingar","lastInspection":"9. október 2023","lastInspectionISO":"2023-10-09","uuid":"d820ba65-abd9-56fc-9f75-245753596482","reportUrl":"https://her.reykjavik.is/embed/d820ba65-abd9-56fc-9f75-245753596482/","lat":64.144124,"lng":-21.91884},{"name":"Center Hótel Arnarhvoll","kt":"4509051430","street":"Ingólfsstræti 1, 101","postnr":null,"city":null,"rating":2,"ratingLabel":"Aðkallandi frávik / ábendingar","lastInspection":"9. október 2023","lastInspectionISO":"2023-10-09","uuid":"dd2ce202-febe-5f36-b4e0-b57b81340d2b","reportUrl":"https://her.reykjavik.is/embed/dd2ce202-febe-5f36-b4e0-b57b81340d2b/","lat":64.149176,"lng":-21.930733},{"name":"Icelandair Hótel Reykjavík Marína","kt":"6212976949","street":"Mýrargötu 2-16","postnr":"101","city":"Reykjavík","rating":2,"ratingLabel":"Aðkallandi frávik / ábendingar","lastInspection":"26. september 2023","lastInspectionISO":"2023-09-26","uuid":"7d89eb4c-1b39-5a22-a2be-6d50e1a3e010","reportUrl":"https://her.reykjavik.is/embed/7d89eb4c-1b39-5a22-a2be-6d50e1a3e010/","lat":64.151283,"lng":-21.946728},{"name":"Vinagarður leikskóli KFUM&amp;KFUK","kt":"5901760369","street":"Holtavegi 28","postnr":"104","city":"Reykjavík","rating":2,"ratingLabel":"Aðkallandi frávik / ábendingar","lastInspection":"20. september 2023","lastInspectionISO":"2023-09-20","uuid":"24ec6163-aa31-58f9-b350-01c647561dd0","reportUrl":"https://her.reykjavik.is/embed/24ec6163-aa31-58f9-b350-01c647561dd0/","lat":64.138997,"lng":-21.862259},{"name":"Mathöll Höfða - Gastro Truck","kt":"6112942989","street":"Bíldshöfði 9","postnr":"110","city":"Reykjavík","rating":2,"ratingLabel":"Aðkallandi frávik / ábendingar","lastInspection":"19. september 2023","lastInspectionISO":"2023-09-19","uuid":"60afe6ae-16ca-58f4-b3df-d0dce0f166ec","reportUrl":"https://her.reykjavik.is/embed/60afe6ae-16ca-58f4-b3df-d0dce0f166ec/","lat":64.126346,"lng":-21.821376},{"name":"Mathöll Höfða - Tandoori Palace","kt":"5908200160","street":"Bíldshöfða 9","postnr":"110","city":"Reykjavík","rating":2,"ratingLabel":"Aðkallandi frávik / ábendingar","lastInspection":"19. september 2023","lastInspectionISO":"2023-09-19","uuid":"bfa6b16b-bc39-5eb1-8dc0-9a8edae94aa4","reportUrl":"https://her.reykjavik.is/embed/bfa6b16b-bc39-5eb1-8dc0-9a8edae94aa4/","lat":64.126346,"lng":-21.821376},{"name":"Hótel Reykjavík Saga","kt":"6301692919","street":"Lækjargötu 12","postnr":"101","city":"Reykjavík","rating":2,"ratingLabel":"Aðkallandi frávik / ábendingar","lastInspection":"13. september 2023","lastInspectionISO":"2023-09-13","uuid":"d8eb1a08-0ebd-5c2f-a01e-78e05198692a","reportUrl":"https://her.reykjavik.is/embed/d8eb1a08-0ebd-5c2f-a01e-78e05198692a/","lat":64.14607,"lng":-21.938831},{"name":"Kringlan mathöll - Takkó","kt":"7103210350","street":"Kringlan 4-12","postnr":"103","city":"Reykjavík","rating":2,"ratingLabel":"Aðkallandi frávik / ábendingar","lastInspection":"8. september 2023","lastInspectionISO":"2023-09-08","uuid":"9e79ceda-3930-5168-971c-0669ed97ab5b","reportUrl":"https://her.reykjavik.is/embed/9e79ceda-3930-5168-971c-0669ed97ab5b/","lat":64.131215,"lng":-21.895295},{"name":"Kringlan mathöll - Flatey pizza","kt":"5303170990","street":"Kringlunni 4-12","postnr":"103","city":"Reykjavík","rating":2,"ratingLabel":"Aðkallandi frávik / ábendingar","lastInspection":"29. ágúst 2023","lastInspectionISO":"2023-08-29","uuid":"d90b05de-2b55-599a-833c-4a2bed0dca31","reportUrl":"https://her.reykjavik.is/embed/d90b05de-2b55-599a-833c-4a2bed0dca31/","lat":64.131215,"lng":-21.895295},{"name":"Kringlan mathöll - Ísey","kt":"5608220650","street":"Kringlunni 4-12","postnr":"103","city":"Reykjavík","rating":2,"ratingLabel":"Aðkallandi frávik / ábendingar","lastInspection":"29. ágúst 2023","lastInspectionISO":"2023-08-29","uuid":"91975142-33c8-5953-a15e-dfa109d87322","reportUrl":"https://her.reykjavik.is/embed/91975142-33c8-5953-a15e-dfa109d87322/","lat":64.131215,"lng":-21.895295},{"name":"Mathöll Hafnartorg Gallerý - Akur - Geirsgötu 19","kt":"6109160740","street":"Geirsgötu 19","postnr":"101","city":"Reykjavík","rating":2,"ratingLabel":"Aðkallandi frávik / ábendingar","lastInspection":"6. júlí 2023","lastInspectionISO":"2023-07-06","uuid":"8405ae87-9870-5389-8f68-5033b3264ff0","reportUrl":"https://her.reykjavik.is/embed/8405ae87-9870-5389-8f68-5033b3264ff0/","lat":64.143161,"lng":-21.937521},{"name":"Krambúðin Laugalæk","kt":"5712983769","street":"Laugalæk 9","postnr":"105","city":"Reykjavík","rating":2,"ratingLabel":"Aðkallandi frávik / ábendingar","lastInspection":"3. maí 2023","lastInspectionISO":"2023-05-03","uuid":"5b8e72ca-5325-5e90-a21a-5e4859780c7d","reportUrl":"https://her.reykjavik.is/embed/5b8e72ca-5325-5e90-a21a-5e4859780c7d/","lat":64.148733,"lng":-21.883788},{"name":"Mathöll Vera - Fura - Bjargargötu 1","kt":"7103221630","street":"Bjargargötu 1","postnr":"102","city":"Reykjavík","rating":2,"ratingLabel":"Aðkallandi frávik / ábendingar","lastInspection":"26. apríl 2023","lastInspectionISO":"2023-04-26","uuid":"99ea792e-e504-557d-a506-17e2ec7484ec","reportUrl":"https://her.reykjavik.is/embed/99ea792e-e504-557d-a506-17e2ec7484ec/","lat":64.136484,"lng":-21.946944},{"name":"Kaffi Gaukur","kt":"5610120910","street":"Brynjólfsgötu 1","postnr":"107","city":"Reykjavík","rating":2,"ratingLabel":"Aðkallandi frávik / ábendingar","lastInspection":"17. apríl 2023","lastInspectionISO":"2023-04-17","uuid":"260cce07-f36f-5410-835a-377c772149d2","reportUrl":"https://her.reykjavik.is/embed/260cce07-f36f-5410-835a-377c772149d2/","lat":64.139982,"lng":-21.952114},{"name":"Mathöll Pósthússtræti - Pósthús Food Hall","kt":"7003211260","street":"Pósthússtræti 3-5, 101","postnr":null,"city":null,"rating":2,"ratingLabel":"Aðkallandi frávik / ábendingar","lastInspection":"30. mars 2023","lastInspectionISO":"2023-03-30","uuid":"ba160fc2-edaa-5038-ac9e-960e29df2c3a","reportUrl":"https://her.reykjavik.is/embed/ba160fc2-edaa-5038-ac9e-960e29df2c3a/","lat":64.147872,"lng":-21.938159},{"name":"Mathöll Pósthússtræti - Enoteka","kt":"4408221420","street":"Pósthússtræti 3-5","postnr":"101","city":"Reykjavík","rating":2,"ratingLabel":"Aðkallandi frávik / ábendingar","lastInspection":"28. mars 2023","lastInspectionISO":"2023-03-28","uuid":"c72392e5-a205-5276-9657-e11b45455de8","reportUrl":"https://her.reykjavik.is/embed/c72392e5-a205-5276-9657-e11b45455de8/","lat":64.147872,"lng":-21.938159},{"name":"Mathöll Pósthússtræti - Funky Bhangra","kt":"4103220800","street":"Pósthússtræti 3-5","postnr":"101","city":"Reykjavík","rating":2,"ratingLabel":"Aðkallandi frávik / ábendingar","lastInspection":"28. mars 2023","lastInspectionISO":"2023-03-28","uuid":"1deea1db-7ded-5308-89cb-1622c84cae13","reportUrl":"https://her.reykjavik.is/embed/1deea1db-7ded-5308-89cb-1622c84cae13/","lat":64.147872,"lng":-21.938159},{"name":"Krambúðin Menntavegi","kt":"5712983769","street":"Menntavegi 1","postnr":"101","city":"Reykjavík","rating":2,"ratingLabel":"Aðkallandi frávik / ábendingar","lastInspection":"27. mars 2023","lastInspectionISO":"2023-03-27","uuid":"fb39c0c8-b5b1-5d93-8d51-a489c17d8bf3","reportUrl":"https://her.reykjavik.is/embed/fb39c0c8-b5b1-5d93-8d51-a489c17d8bf3/","lat":64.1239,"lng":-21.926835},{"name":"Mathöll Vera - Natalía - Bjargargötu 1","kt":"6108200340","street":"Bjargargötu 1","postnr":"101","city":"Reykjavík","rating":2,"ratingLabel":"Aðkallandi frávik / ábendingar","lastInspection":"26. mars 2023","lastInspectionISO":"2023-03-26","uuid":"b778a52d-fe14-5762-8bcc-5d0c2e0e59fc","reportUrl":"https://her.reykjavik.is/embed/b778a52d-fe14-5762-8bcc-5d0c2e0e59fc/","lat":64.136484,"lng":-21.946944},{"name":"Mötuneyti Sendibílastöðvarinnar","kt":"5602693909","street":"Klettagörðum 1","postnr":"104","city":"Reykjavík","rating":2,"ratingLabel":"Aðkallandi frávik / ábendingar","lastInspection":"20. mars 2023","lastInspectionISO":"2023-03-20","uuid":"58b3b19f-8728-5465-bad3-063e91981585","reportUrl":"https://her.reykjavik.is/embed/58b3b19f-8728-5465-bad3-063e91981585/","lat":64.151091,"lng":-21.864554},{"name":"Mathöll Höfða - Wok on","kt":"5801180620","street":"Bíldshöfði 9","postnr":"110","city":"Reykjavík","rating":2,"ratingLabel":"Aðkallandi frávik / ábendingar","lastInspection":"14. mars 2023","lastInspectionISO":"2023-03-14","uuid":"3493d99e-91a7-512d-8d54-e6e45265e617","reportUrl":"https://her.reykjavik.is/embed/3493d99e-91a7-512d-8d54-e6e45265e617/","lat":64.126346,"lng":-21.821376},{"name":"Héðinn Kitchen &amp; Bar","kt":"6304211010","street":"Seljavegi 2","postnr":"101","city":"Reykjavík","rating":2,"ratingLabel":"Aðkallandi frávik / ábendingar","lastInspection":"6. mars 2023","lastInspectionISO":"2023-03-06","uuid":"0399ed07-929b-5f4a-b05a-3242b13ede06","reportUrl":"https://her.reykjavik.is/embed/0399ed07-929b-5f4a-b05a-3242b13ede06/","lat":64.151898,"lng":-21.951691},{"name":"Kjötkompaníið","kt":"5007090140","street":"Grandagarði 29","postnr":"101","city":"Reykjavík","rating":2,"ratingLabel":"Aðkallandi frávik / ábendingar","lastInspection":"6. mars 2023","lastInspectionISO":"2023-03-06","uuid":"5e2bc48b-2573-5a3e-af62-c8807d377fa1","reportUrl":"https://her.reykjavik.is/embed/5e2bc48b-2573-5a3e-af62-c8807d377fa1/","lat":64.153738,"lng":-21.9482},{"name":"Krambúðin Suðurveri","kt":"5712983769","street":"Stigahlíð 45-47","postnr":"105","city":"Reykjavík","rating":2,"ratingLabel":"Aðkallandi frávik / ábendingar","lastInspection":"1. febrúar 2023","lastInspectionISO":"2023-02-01","uuid":"cebe836a-e076-5a4c-8d42-93bf9ef8f205","reportUrl":"https://her.reykjavik.is/embed/cebe836a-e076-5a4c-8d42-93bf9ef8f205/","lat":64.131061,"lng":-21.900728},{"name":"Hverafold bakarí","kt":"5305131300","street":"Hverafold 1-3","postnr":"112","city":"Reykjavík","rating":2,"ratingLabel":"Aðkallandi frávik / ábendingar","lastInspection":"30. janúar 2023","lastInspectionISO":"2023-01-30","uuid":"c8e7dd3d-2d78-5ff1-bac8-fbfc0c1eaf4e","reportUrl":"https://her.reykjavik.is/embed/c8e7dd3d-2d78-5ff1-bac8-fbfc0c1eaf4e/","lat":64.134248,"lng":-21.798224},{"name":"Mötuneyti Origo","kt":"5302922079","street":"Borgartúni 37","postnr":"105","city":"Reykjavík","rating":2,"ratingLabel":"Aðkallandi frávik / ábendingar","lastInspection":"25. janúar 2023","lastInspectionISO":"2023-01-25","uuid":"eb291525-b8ef-573c-8f6b-10e47f47728c","reportUrl":"https://her.reykjavik.is/embed/eb291525-b8ef-573c-8f6b-10e47f47728c/","lat":64.146879,"lng":-21.894577},{"name":"Svarta Kaffið","kt":"6409032790","street":"Laugavegi 54","postnr":"101","city":"Reykjavík","rating":2,"ratingLabel":"Aðkallandi frávik / ábendingar","lastInspection":"11. janúar 2023","lastInspectionISO":"2023-01-11","uuid":"cf02652e-cfaa-5aa9-969a-0ae4115e81c5","reportUrl":"https://her.reykjavik.is/embed/cf02652e-cfaa-5aa9-969a-0ae4115e81c5/","lat":64.144471,"lng":-21.923422},{"name":"Víkivaki","kt":"6111962109","street":"Barónsstíg 27","postnr":"101","city":"Reykjavík","rating":2,"ratingLabel":"Aðkallandi frávik / ábendingar","lastInspection":"4. janúar 2023","lastInspectionISO":"2023-01-04","uuid":"8ff10764-68cb-5072-b0cd-a3dbd3280ccd","reportUrl":"https://her.reykjavik.is/embed/8ff10764-68cb-5072-b0cd-a3dbd3280ccd/","lat":64.143151,"lng":-21.919334},{"name":"Kaffi Holt","kt":"4812210210","street":"Kirkjustétt 2","postnr":"113","city":"Reykjavík","rating":2,"ratingLabel":"Aðkallandi frávik / ábendingar","lastInspection":"15. nóvember 2022","lastInspectionISO":"2022-11-15","uuid":"cb8f22b1-8b44-543a-ae3f-4d8a6681ce66","reportUrl":"https://her.reykjavik.is/embed/cb8f22b1-8b44-543a-ae3f-4d8a6681ce66/","lat":64.12625,"lng":-21.756645},{"name":"Krambúðin Hjarðarhaga - Hjarðarhaga 47","kt":"5712983769","street":"Hjarðarhaga 47","postnr":"107","city":"Reykjavík","rating":2,"ratingLabel":"Aðkallandi frávik / ábendingar","lastInspection":"15. nóvember 2022","lastInspectionISO":"2022-11-15","uuid":"ac6d392d-b9d2-5a3e-8195-0b2f4b28fa7d","reportUrl":"https://her.reykjavik.is/embed/ac6d392d-b9d2-5a3e-8195-0b2f4b28fa7d/","lat":64.141576,"lng":-21.961999},{"name":"Kaffivagninn","kt":"4605200530","street":"Grandagarði 10","postnr":"101","city":"Reykjavík","rating":2,"ratingLabel":"Aðkallandi frávik / ábendingar","lastInspection":"10. nóvember 2022","lastInspectionISO":"2022-11-10","uuid":"ff30ec06-3f58-564b-bcc1-b800ba14c4a5","reportUrl":"https://her.reykjavik.is/embed/ff30ec06-3f58-564b-bcc1-b800ba14c4a5/","lat":64.153603,"lng":-21.947523},{"name":"Sólon Bistro","kt":"7009131550","street":"Bankastræti 7a","postnr":"101","city":"Reykjavík","rating":2,"ratingLabel":"Aðkallandi frávik / ábendingar","lastInspection":"3. nóvember 2022","lastInspectionISO":"2022-11-03","uuid":"4e619282-80bf-597f-98b0-b068bbfdfbe3","reportUrl":"https://her.reykjavik.is/embed/4e619282-80bf-597f-98b0-b068bbfdfbe3/","lat":64.146809,"lng":-21.933678},{"name":"Mötuneyti Lögreglu","kt":"6607720229","street":"Hverfisgötu 113-115","postnr":"150","city":"Reykjavík","rating":2,"ratingLabel":"Aðkallandi frávik / ábendingar","lastInspection":"2. nóvember 2022","lastInspectionISO":"2022-11-02","uuid":"11c24e33-8366-5aa7-8bb4-026d54ab06c2","reportUrl":"https://her.reykjavik.is/embed/11c24e33-8366-5aa7-8bb4-026d54ab06c2/","lat":64.14391,"lng":-21.914819},{"name":"Icelandair Hótel Reykjavík Natur og Satt","kt":"6212976949","street":"Nauthólsvegur 52","postnr":"101","city":"Reykjavík","rating":2,"ratingLabel":"Aðkallandi frávik / ábendingar","lastInspection":"13. október 2022","lastInspectionISO":"2022-10-13","uuid":"015d64f8-0915-5def-99dd-95f26540b6c3","reportUrl":"https://her.reykjavik.is/embed/015d64f8-0915-5def-99dd-95f26540b6c3/","lat":64.130724,"lng":-21.932605},{"name":"Mötuneyti Bakkans - vöruhótels","kt":"6508081770","street":"Skarfagörðum 2","postnr":"104","city":"Reykjavík","rating":2,"ratingLabel":"Aðkallandi frávik / ábendingar","lastInspection":"26. september 2022","lastInspectionISO":"2022-09-26","uuid":"79f0c17b-b98c-5ee8-9b54-f6f69126ab77","reportUrl":"https://her.reykjavik.is/embed/79f0c17b-b98c-5ee8-9b54-f6f69126ab77/","lat":64.153929,"lng":-21.863197},{"name":"Hótel Holt","kt":"4205025910","street":"Bergstaðastræti 37","postnr":"101","city":"Reykjavík","rating":2,"ratingLabel":"Aðkallandi frávik / ábendingar","lastInspection":"26. ágúst 2022","lastInspectionISO":"2022-08-26","uuid":"4f80fe62-b4d7-50db-9a2e-8f52e9ebedf4","reportUrl":"https://her.reykjavik.is/embed/4f80fe62-b4d7-50db-9a2e-8f52e9ebedf4/","lat":64.142856,"lng":-21.93491},{"name":"Mathöll Grósku - PUNK","kt":"6306221070","street":"Bjargargata 1","postnr":"102","city":"Reykjavík","rating":2,"ratingLabel":"Aðkallandi frávik / ábendingar","lastInspection":"28. júlí 2022","lastInspectionISO":"2022-07-28","uuid":"f4cf2364-c423-5c29-b3fa-1b2afe51f63d","reportUrl":"https://her.reykjavik.is/embed/f4cf2364-c423-5c29-b3fa-1b2afe51f63d/","lat":64.136484,"lng":-21.946944},{"name":"Leikskólinn Holt - Völvufelli 7-9","kt":"5007962359","street":"Völvufelli 7","postnr":"111","city":"Reykjavík","rating":2,"ratingLabel":"Aðkallandi frávik / ábendingar","lastInspection":"24. júní 2022","lastInspectionISO":"2022-06-24","uuid":"c23c2af1-1dde-544b-b446-b2ad4eb4a471","reportUrl":"https://her.reykjavik.is/embed/c23c2af1-1dde-544b-b446-b2ad4eb4a471/","lat":64.099885,"lng":-21.823926},{"name":"Flóran Café Bistró","kt":"7012052940","street":"Holtavegi 32","postnr":"104","city":"Reykjavík","rating":2,"ratingLabel":"Aðkallandi frávik / ábendingar","lastInspection":"20. júní 2022","lastInspectionISO":"2022-06-20","uuid":"16e576f0-e3ab-5bb8-a086-a77cc3f120f8","reportUrl":"https://her.reykjavik.is/embed/16e576f0-e3ab-5bb8-a086-a77cc3f120f8/","lat":64.139465,"lng":-21.86756},{"name":"Finnsson Bistro","kt":"6104043830","street":"Kringlunni 4-12, 103","postnr":null,"city":null,"rating":2,"ratingLabel":"Aðkallandi frávik / ábendingar","lastInspection":"10. júní 2022","lastInspectionISO":"2022-06-10","uuid":"e9a8d45a-d793-5ecd-8733-29318c31bfe2","reportUrl":"https://her.reykjavik.is/embed/e9a8d45a-d793-5ecd-8733-29318c31bfe2/","lat":64.131215,"lng":-21.895295},{"name":"Mathöll Borgartúni","kt":"6907202560","street":"Borgartúni 29","postnr":"105","city":"Reykjavík","rating":2,"ratingLabel":"Aðkallandi frávik / ábendingar","lastInspection":"24. maí 2022","lastInspectionISO":"2022-05-24","uuid":"1e047558-4926-5591-8746-a45dfad722c0","reportUrl":"https://her.reykjavik.is/embed/1e047558-4926-5591-8746-a45dfad722c0/","lat":64.146195,"lng":-21.899358},{"name":"Kjötborg","kt":"2307534749","street":"Ásvallagötu 19","postnr":"101","city":"Reykjavík","rating":2,"ratingLabel":"Aðkallandi frávik / ábendingar","lastInspection":"19. maí 2022","lastInspectionISO":"2022-05-19","uuid":"1de25593-ae68-5957-9b37-63d8c5b57c66","reportUrl":"https://her.reykjavik.is/embed/1de25593-ae68-5957-9b37-63d8c5b57c66/","lat":64.14597,"lng":-21.951303},{"name":"Matsöluvagn Pylsuvagninn við Húsasmiðju í Grafarholti","kt":"6911210700","street":"Vínlandsleið 1","postnr":"113","city":"Reykjavík","rating":2,"ratingLabel":"Aðkallandi frávik / ábendingar","lastInspection":"11. maí 2022","lastInspectionISO":"2022-05-11","uuid":"2a4b265b-d7a2-50ca-a6b6-58a1cf74a049","reportUrl":"https://her.reykjavik.is/embed/2a4b265b-d7a2-50ca-a6b6-58a1cf74a049/","lat":64.131093,"lng":-21.7631},{"name":"Skalli","kt":"7112962719","street":"Hraunbæ 102","postnr":"110","city":"Reykjavík","rating":2,"ratingLabel":"Aðkallandi frávik / ábendingar","lastInspection":"30. mars 2022","lastInspectionISO":"2022-03-30","uuid":"e25aa4fb-8df7-53ef-8c39-03ece697a9e9","reportUrl":"https://her.reykjavik.is/embed/e25aa4fb-8df7-53ef-8c39-03ece697a9e9/","lat":64.117755,"lng":-21.797374},{"name":"Pizza King","kt":"4205050940","street":"Skipholt 70","postnr":"105","city":"Reykjavík","rating":2,"ratingLabel":"Aðkallandi frávik / ábendingar","lastInspection":"17. mars 2022","lastInspectionISO":"2022-03-17","uuid":"839c19cc-38e6-56cd-a0ae-e55b95cd65ea","reportUrl":"https://her.reykjavik.is/embed/839c19cc-38e6-56cd-a0ae-e55b95cd65ea/","lat":64.137628,"lng":-21.897594},{"name":"Pizzan - Lóuhólum 2","kt":"6810161200","street":"Lóuhólum 2","postnr":"111","city":"Reykjavík","rating":2,"ratingLabel":"Aðkallandi frávik / ábendingar","lastInspection":"9. mars 2022","lastInspectionISO":"2022-03-09","uuid":"394244df-5374-5272-8774-87937135f884","reportUrl":"https://her.reykjavik.is/embed/394244df-5374-5272-8774-87937135f884/","lat":64.108963,"lng":-21.815972},{"name":"Noodle Station","kt":"5410160660","street":"Laugavegi 103","postnr":"101","city":"Reykjavík","rating":2,"ratingLabel":"Aðkallandi frávik / ábendingar","lastInspection":"17. febrúar 2022","lastInspectionISO":"2022-02-17","uuid":"00f74bf9-7cc1-52e5-9cfb-14c973f9e6ba","reportUrl":"https://her.reykjavik.is/embed/00f74bf9-7cc1-52e5-9cfb-14c973f9e6ba/","lat":64.143232,"lng":-21.915435},{"name":"10-11","kt":"6803190730","street":"Austurstræti 17","postnr":"101","city":"Reykjavík","rating":2,"ratingLabel":"Aðkallandi frávik / ábendingar","lastInspection":"11. febrúar 2022","lastInspectionISO":"2022-02-11","uuid":"a38b279b-0f5b-5fa7-bb24-59a28d3c88f6","reportUrl":"https://her.reykjavik.is/embed/a38b279b-0f5b-5fa7-bb24-59a28d3c88f6/","lat":64.147613,"lng":-21.937679},{"name":"Te og kaffi","kt":"5304840179","street":"Kringlunni 4-12","postnr":"108","city":"Reykjavík","rating":2,"ratingLabel":"Aðkallandi frávik / ábendingar","lastInspection":"8. febrúar 2022","lastInspectionISO":"2022-02-08","uuid":"c0de6b45-2cbc-5f9d-805c-a64779ab9cdf","reportUrl":"https://her.reykjavik.is/embed/c0de6b45-2cbc-5f9d-805c-a64779ab9cdf/","lat":64.130097,"lng":-21.89518},{"name":"Veitingaportið","kt":"6610181510","street":"Tryggvagötu 14","postnr":"101","city":"Reykjavík","rating":2,"ratingLabel":"Aðkallandi frávik / ábendingar","lastInspection":"27. janúar 2022","lastInspectionISO":"2022-01-27","uuid":"19887fb2-6592-5a71-be92-1f1a0f7a1a05","reportUrl":"https://her.reykjavik.is/embed/19887fb2-6592-5a71-be92-1f1a0f7a1a05/","lat":64.149968,"lng":-21.943287},{"name":"Smurbrauðsstofa Sylvíu","kt":"4703002050","street":"Laugavegi 170, 105","postnr":null,"city":null,"rating":2,"ratingLabel":"Aðkallandi frávik / ábendingar","lastInspection":"13. desember 2021","lastInspectionISO":"2021-12-13","uuid":"411cf2c6-18c2-5de5-be67-cc2f81f39c16","reportUrl":"https://her.reykjavik.is/embed/411cf2c6-18c2-5de5-be67-cc2f81f39c16/","lat":64.14166,"lng":-21.902681},{"name":"Grillhúsið","kt":"5107022470","street":"Laugavegur 96","postnr":"101","city":"Reykjavík","rating":2,"ratingLabel":"Aðkallandi frávik / ábendingar","lastInspection":"1. desember 2021","lastInspectionISO":"2021-12-01","uuid":"b7f8cd8c-a7a0-5d3b-8210-641887c50a3d","reportUrl":"https://her.reykjavik.is/embed/b7f8cd8c-a7a0-5d3b-8210-641887c50a3d/","lat":64.143256,"lng":-21.91735},{"name":"Kaffifélagið","kt":"5202071980","street":"Skólavörðustíg 10","postnr":"101","city":"Reykjavík","rating":2,"ratingLabel":"Aðkallandi frávik / ábendingar","lastInspection":"30. nóvember 2021","lastInspectionISO":"2021-11-30","uuid":"fd615635-42f3-5f55-a448-0c8ce13c1368","reportUrl":"https://her.reykjavik.is/embed/fd615635-42f3-5f55-a448-0c8ce13c1368/","lat":64.145687,"lng":-21.932382},{"name":"Eyja Guldsmeden Hotel","kt":"6306152320","street":"Brautarholti 10-14","postnr":"105","city":"Reykjavík","rating":2,"ratingLabel":"Aðkallandi frávik / ábendingar","lastInspection":"4. nóvember 2021","lastInspectionISO":"2021-11-04","uuid":"6ff1f276-f085-5ebe-9e3b-fc059d82d3a8","reportUrl":"https://her.reykjavik.is/embed/6ff1f276-f085-5ebe-9e3b-fc059d82d3a8/","lat":64.14184,"lng":-21.907402},{"name":"Cesar veitingar","kt":"4501013030","street":"Arngrímsgata 3","postnr":"107","city":"Reykjavík","rating":2,"ratingLabel":"Aðkallandi frávik / ábendingar","lastInspection":"4. nóvember 2021","lastInspectionISO":"2021-11-04","uuid":"8a4eb549-46d4-58c6-b3b6-4d963d3411c5","reportUrl":"https://her.reykjavik.is/embed/8a4eb549-46d4-58c6-b3b6-4d963d3411c5/","lat":64.142936,"lng":-21.950814},{"name":"10-11 - Laugavegi 116","kt":"4707100470","street":"Laugavegi 116","postnr":"105","city":"Reykjavík","rating":2,"ratingLabel":"Aðkallandi frávik / ábendingar","lastInspection":"3. nóvember 2021","lastInspectionISO":"2021-11-03","uuid":"14a8f166-9030-513a-a2ab-a4f3b548331c","reportUrl":"https://her.reykjavik.is/embed/14a8f166-9030-513a-a2ab-a4f3b548331c/","lat":64.143007,"lng":-21.915432},{"name":"Kaffitár","kt":"6910100660","street":"Kringlunni 4-12","postnr":"103","city":"Njarðvík","rating":2,"ratingLabel":"Aðkallandi frávik / ábendingar","lastInspection":"3. nóvember 2021","lastInspectionISO":"2021-11-03","uuid":"0fc7b721-fbe4-5c3f-b8e7-005a322f2c5e","reportUrl":"https://her.reykjavik.is/embed/0fc7b721-fbe4-5c3f-b8e7-005a322f2c5e/","lat":64.131215,"lng":-21.895295},{"name":"Bragginn Bar og Bístró","kt":"7009190800","street":"Nauthólsvegi 100","postnr":"101","city":"Reykjavík","rating":2,"ratingLabel":"Aðkallandi frávik / ábendingar","lastInspection":"3. nóvember 2021","lastInspectionISO":"2021-11-03","uuid":"0b6a9232-7292-5908-b9f9-bf2cc3dcea6a","reportUrl":"https://her.reykjavik.is/embed/0b6a9232-7292-5908-b9f9-bf2cc3dcea6a/","lat":64.122234,"lng":-21.930867},{"name":"Kaffitár","kt":"6910100660","street":"Menntavegi 1","postnr":"101","city":"Reykjavík","rating":2,"ratingLabel":"Aðkallandi frávik / ábendingar","lastInspection":"1. nóvember 2021","lastInspectionISO":"2021-11-01","uuid":"582d90d4-af52-5aa6-b761-dcddda3a085c","reportUrl":"https://her.reykjavik.is/embed/582d90d4-af52-5aa6-b761-dcddda3a085c/","lat":64.1239,"lng":-21.926835},{"name":"Mötuneyti Veðurstofu Íslands","kt":"6309080350","street":"Bústaðavegi 7","postnr":"150","city":"Reykjavík","rating":2,"ratingLabel":"Aðkallandi frávik / ábendingar","lastInspection":"27. október 2021","lastInspectionISO":"2021-10-27","uuid":"24b69aa8-7d2c-5030-9bae-16ad47ec503c","reportUrl":"https://her.reykjavik.is/embed/24b69aa8-7d2c-5030-9bae-16ad47ec503c/","lat":64.127584,"lng":-21.906731},{"name":"Kaffibrennslan","kt":"4804992479","street":"Laugavegi 21","postnr":"101","city":"Reykjavík","rating":2,"ratingLabel":"Aðkallandi frávik / ábendingar","lastInspection":"26. október 2021","lastInspectionISO":"2021-10-26","uuid":"90fb0c00-567b-5779-bccd-01380ed8764d","reportUrl":"https://her.reykjavik.is/embed/90fb0c00-567b-5779-bccd-01380ed8764d/","lat":64.145811,"lng":-21.929351},{"name":"Matsöluvagn Pylsuvagninn við Húsasmiðju í Grafarholti","kt":"5608170290","street":"Vínlandsleið 1","postnr":"113","city":"Reykjavík","rating":2,"ratingLabel":"Aðkallandi frávik / ábendingar","lastInspection":"26. október 2021","lastInspectionISO":"2021-10-26","uuid":"b9ca29ec-ba09-59b5-9418-9be0466e1c82","reportUrl":"https://her.reykjavik.is/embed/b9ca29ec-ba09-59b5-9418-9be0466e1c82/","lat":64.131093,"lng":-21.7631},{"name":"Extra 24","kt":"5902691749","street":"Barónsstíg 4","postnr":"101","city":"Reykjavík","rating":2,"ratingLabel":"Aðkallandi frávik / ábendingar","lastInspection":"18. október 2021","lastInspectionISO":"2021-10-18","uuid":"db88cf44-cab0-527c-97b1-28e05d0e03d3","reportUrl":"https://her.reykjavik.is/embed/db88cf44-cab0-527c-97b1-28e05d0e03d3/","lat":64.144679,"lng":-21.918447},{"name":"Mathöll Höfða - Indican","kt":"4903180380","street":"Bíldshöfði 9","postnr":"110","city":"Reykjavík","rating":2,"ratingLabel":"Aðkallandi frávik / ábendingar","lastInspection":"14. október 2021","lastInspectionISO":"2021-10-14","uuid":"2be497d3-fadd-5706-86bd-e471e5a7e86f","reportUrl":"https://her.reykjavik.is/embed/2be497d3-fadd-5706-86bd-e471e5a7e86f/","lat":64.126346,"lng":-21.821376},{"name":"Hamborgarabúlla Tómasar ehf","kt":"5209052190","street":"Geirsgötu 1","postnr":"101","city":"Reykjavík","rating":2,"ratingLabel":"Aðkallandi frávik / ábendingar","lastInspection":"12. október 2021","lastInspectionISO":"2021-10-12","uuid":"5fd08570-94dc-5692-ab83-5c5d852d207b","reportUrl":"https://her.reykjavik.is/embed/5fd08570-94dc-5692-ab83-5c5d852d207b/","lat":64.150896,"lng":-21.945006},{"name":"Plútó pizza","kt":"5507190530","street":"Hagamel 67","postnr":"107","city":"Reykjavík","rating":2,"ratingLabel":"Aðkallandi frávik / ábendingar","lastInspection":"31. ágúst 2021","lastInspectionISO":"2021-08-31","uuid":"a969454d-36f2-5ffd-91eb-b5260bc377de","reportUrl":"https://her.reykjavik.is/embed/a969454d-36f2-5ffd-91eb-b5260bc377de/","lat":64.145802,"lng":-21.962596},{"name":"Nútrí Acaí Bar - Háaleitisbraut 58-60","kt":"5506161650","street":"Háaleitisbraut 58-60","postnr":"108","city":"Reykjavík","rating":2,"ratingLabel":"Aðkallandi frávik / ábendingar","lastInspection":"18. ágúst 2021","lastInspectionISO":"2021-08-18","uuid":"85805ea5-d192-5317-9c12-70635af3516a","reportUrl":"https://her.reykjavik.is/embed/85805ea5-d192-5317-9c12-70635af3516a/","lat":64.132657,"lng":-21.883465},{"name":"Leikskólinn Askja","kt":"5405992039","street":"Nauthólsvegi 87","postnr":"101","city":"Reykjavík","rating":2,"ratingLabel":"Aðkallandi frávik / ábendingar","lastInspection":"10. ágúst 2021","lastInspectionISO":"2021-08-10","uuid":"92d27269-6d32-5673-a827-c640a5109fad","reportUrl":"https://her.reykjavik.is/embed/92d27269-6d32-5673-a827-c640a5109fad/","lat":64.128517,"lng":-21.928831},{"name":"Ísbúðin Ingólfstorgi","kt":"7012140130","street":"Ingólfstorgi 3","postnr":"101","city":"Reykjavík","rating":2,"ratingLabel":"Aðkallandi frávik / ábendingar","lastInspection":"20. júlí 2021","lastInspectionISO":"2021-07-20","uuid":"bafd9bc8-8758-553f-80ae-6df1716676a6","reportUrl":"https://her.reykjavik.is/embed/bafd9bc8-8758-553f-80ae-6df1716676a6/","lat":64.148303,"lng":-21.941215},{"name":"Héðinn veitingar ehf","kt":"6304211010","street":"Seljavegi 2","postnr":"101","city":"Reykjavík","rating":2,"ratingLabel":"Aðkallandi frávik / ábendingar","lastInspection":"14. júní 2021","lastInspectionISO":"2021-06-14","uuid":"c450409b-7131-5fde-b6c4-2059595fdb2c","reportUrl":"https://her.reykjavik.is/embed/c450409b-7131-5fde-b6c4-2059595fdb2c/","lat":64.151898,"lng":-21.951691},{"name":"Hlemmur - Kröst","kt":"6109160740","street":"Laugavegi 107","postnr":"101","city":"Reykjavík","rating":2,"ratingLabel":"Aðkallandi frávik / ábendingar","lastInspection":"10. júní 2021","lastInspectionISO":"2021-06-10","uuid":"0102c9ce-af0d-5333-bc9e-26ce23ea9e77","reportUrl":"https://her.reykjavik.is/embed/0102c9ce-af0d-5333-bc9e-26ce23ea9e77/","lat":64.143212,"lng":-21.914158},{"name":"Kaffistofan Domus","kt":"1604513439","street":"Egilsgötu 3","postnr":"101","city":"Reykjavík","rating":2,"ratingLabel":"Aðkallandi frávik / ábendingar","lastInspection":"7. júní 2021","lastInspectionISO":"2021-06-07","uuid":"b9ef7b02-2311-51a4-b94b-fef2bb6f697f","reportUrl":"https://her.reykjavik.is/embed/b9ef7b02-2311-51a4-b94b-fef2bb6f697f/","lat":64.139991,"lng":-21.92159},{"name":"Mötuneyti Nýherja - lager","kt":"5302922079","street":"Köllunarklettsvegur 8","postnr":"104","city":"Reykjavík","rating":2,"ratingLabel":"Aðkallandi frávik / ábendingar","lastInspection":"1. júní 2021","lastInspectionISO":"2021-06-01","uuid":"953567bb-c65e-5295-a346-b7c6485b306e","reportUrl":"https://her.reykjavik.is/embed/953567bb-c65e-5295-a346-b7c6485b306e/","lat":64.152715,"lng":-21.87499},{"name":"Majó bakari","kt":"0411585659","street":"Laugarnesvegi 74a","postnr":"105","city":"Reykjavík","rating":2,"ratingLabel":"Aðkallandi frávik / ábendingar","lastInspection":"27. maí 2021","lastInspectionISO":"2021-05-27","uuid":"6da3bfdb-05c2-5409-8c55-166c73e2e0f0","reportUrl":"https://her.reykjavik.is/embed/6da3bfdb-05c2-5409-8c55-166c73e2e0f0/","lat":64.148671,"lng":-21.885098},{"name":"Mathöll Borgartúni - La Masa","kt":"6101211520","street":"Borgartún 29","postnr":"105","city":"Reykjavík","rating":2,"ratingLabel":"Aðkallandi frávik / ábendingar","lastInspection":"27. maí 2021","lastInspectionISO":"2021-05-27","uuid":"613ebff8-d64c-53ae-a832-23fdcbdd2538","reportUrl":"https://her.reykjavik.is/embed/613ebff8-d64c-53ae-a832-23fdcbdd2538/","lat":64.146195,"lng":-21.899358},{"name":"Mathöll Borgartúni - Pronto Pasta","kt":"4112200440","street":"Borgartún 29","postnr":"105","city":"Reykjavík","rating":2,"ratingLabel":"Aðkallandi frávik / ábendingar","lastInspection":"21. maí 2021","lastInspectionISO":"2021-05-21","uuid":"95718810-d69e-5114-aa01-602abaeccae9","reportUrl":"https://her.reykjavik.is/embed/95718810-d69e-5114-aa01-602abaeccae9/","lat":64.146195,"lng":-21.899358},{"name":"Hlemmur - Caliber veitingar ehf","kt":"6505200250","street":"Laugavegi 107","postnr":"105","city":"Reykjavík","rating":2,"ratingLabel":"Aðkallandi frávik / ábendingar","lastInspection":"21. apríl 2021","lastInspectionISO":"2021-04-21","uuid":"daad6613-3afd-535d-a2f5-1d6bd0fd59fc","reportUrl":"https://her.reykjavik.is/embed/daad6613-3afd-535d-a2f5-1d6bd0fd59fc/","lat":64.143212,"lng":-21.914158},{"name":"Krambúðin Borgartúni","kt":"5712983769","street":"Borgartúni 26, 105","postnr":null,"city":null,"rating":2,"ratingLabel":"Aðkallandi frávik / ábendingar","lastInspection":"16. mars 2021","lastInspectionISO":"2021-03-16","uuid":"4d1a0383-04ee-555d-9e3b-a5191d25adfe","reportUrl":"https://her.reykjavik.is/embed/4d1a0383-04ee-555d-9e3b-a5191d25adfe/","lat":64.145713,"lng":-21.8983},{"name":"Chido - Ægisíðu 123","kt":"5901110660","street":"Ægisíðu 123","postnr":"107","city":"Reykjavík","rating":2,"ratingLabel":"Aðkallandi frávik / ábendingar","lastInspection":"10. mars 2021","lastInspectionISO":"2021-03-10","uuid":"41a8da1f-b6ae-5e3a-b73f-ecb4b01b6dcc","reportUrl":"https://her.reykjavik.is/embed/41a8da1f-b6ae-5e3a-b73f-ecb4b01b6dcc/","lat":64.144213,"lng":-21.969171},{"name":"Snær veitingar","kt":"6406020226","street":"Brekkuhúsum 1","postnr":"112","city":"Reykjavík","rating":2,"ratingLabel":"Aðkallandi frávik / ábendingar","lastInspection":"10. mars 2021","lastInspectionISO":"2021-03-10","uuid":"892368b0-b080-5a85-848d-1e091245d3b8","reportUrl":"https://her.reykjavik.is/embed/892368b0-b080-5a85-848d-1e091245d3b8/","lat":64.138013,"lng":-21.776794},{"name":"Gallerý Fiskur","kt":"4803022490","street":"Nethyl 2, 110","postnr":null,"city":null,"rating":2,"ratingLabel":"Aðkallandi frávik / ábendingar","lastInspection":"5. mars 2021","lastInspectionISO":"2021-03-05","uuid":"fa31d13d-1c28-541b-b37f-e4203d53347d","reportUrl":"https://her.reykjavik.is/embed/fa31d13d-1c28-541b-b37f-e4203d53347d/","lat":64.12169,"lng":-21.813686},{"name":"Mathöll Höfða - Íslenska Flatbakan","kt":"4411023050","street":"Bíldshöfða 9","postnr":"110","city":"Reykjavík","rating":2,"ratingLabel":"Aðkallandi frávik / ábendingar","lastInspection":"23. febrúar 2021","lastInspectionISO":"2021-02-23","uuid":"acb0cb22-1701-5a49-ace9-c425a0b1615d","reportUrl":"https://her.reykjavik.is/embed/acb0cb22-1701-5a49-ace9-c425a0b1615d/","lat":64.126346,"lng":-21.821376},{"name":"101 Spa","kt":"5902192230","street":"Laugavegi 71","postnr":"101","city":"Reykjavík","rating":2,"ratingLabel":"Aðkallandi frávik / ábendingar","lastInspection":"11. febrúar 2021","lastInspectionISO":"2021-02-11","uuid":"f2abb479-ea67-59af-b6b9-3c4913e3bb41","reportUrl":"https://her.reykjavik.is/embed/f2abb479-ea67-59af-b6b9-3c4913e3bb41/","lat":64.144131,"lng":-21.920513},{"name":"Dominos Pizza","kt":"4802932669","street":"Spönginni 17","postnr":"112","city":"Reykjavík","rating":2,"ratingLabel":"Aðkallandi frávik / ábendingar","lastInspection":"26. janúar 2021","lastInspectionISO":"2021-01-26","uuid":"e8c4e91e-5ea2-5cb2-bee0-6a23f4d1e9ff","reportUrl":"https://her.reykjavik.is/embed/e8c4e91e-5ea2-5cb2-bee0-6a23f4d1e9ff/","lat":64.150938,"lng":-21.788667},{"name":"Pizzan","kt":"4205024940","street":"Hverafold 1-5","postnr":"112","city":"Reykjavík","rating":2,"ratingLabel":"Aðkallandi frávik / ábendingar","lastInspection":"26. janúar 2021","lastInspectionISO":"2021-01-26","uuid":"4e569816-e247-5aed-8604-e4a2525f8c09","reportUrl":"https://her.reykjavik.is/embed/4e569816-e247-5aed-8604-e4a2525f8c09/","lat":64.134248,"lng":-21.798224},{"name":"Mandí Pizza","kt":"4909111540","street":"Hafnarstræti 9","postnr":"101","city":"Reykjavík","rating":2,"ratingLabel":"Aðkallandi frávik / ábendingar","lastInspection":"19. janúar 2021","lastInspectionISO":"2021-01-19","uuid":"d03f20ce-0f32-5d54-aa9d-8c3a4bd235b0","reportUrl":"https://her.reykjavik.is/embed/d03f20ce-0f32-5d54-aa9d-8c3a4bd235b0/","lat":64.148225,"lng":-21.939096},{"name":"Ban Thai","kt":"6911993559","street":"Laugavegi 130","postnr":"105","city":"Reykjavík","rating":2,"ratingLabel":"Aðkallandi frávik / ábendingar","lastInspection":"4. desember 2020","lastInspectionISO":"2020-12-04","uuid":"3caa0a03-6215-56a0-982d-8ca994809bf5","reportUrl":"https://her.reykjavik.is/embed/3caa0a03-6215-56a0-982d-8ca994809bf5/","lat":64.142913,"lng":-21.911988},{"name":"Mai Thai","kt":"6508051270","street":"Laugavegi 116","postnr":"101","city":"Reykjavík","rating":2,"ratingLabel":"Aðkallandi frávik / ábendingar","lastInspection":"3. desember 2020","lastInspectionISO":"2020-12-03","uuid":"a6c06454-bda2-53c1-a159-bf9f820fd167","reportUrl":"https://her.reykjavik.is/embed/a6c06454-bda2-53c1-a159-bf9f820fd167/","lat":64.143007,"lng":-21.915432},{"name":"Mötuneyti Borgartúni 7","kt":"4305702019","street":"Borgartúni 7","postnr":"105","city":"Reykjavík","rating":2,"ratingLabel":"Aðkallandi frávik / ábendingar","lastInspection":"29. september 2020","lastInspectionISO":"2020-09-29","uuid":"ced97f47-474a-567b-aaa2-ce09d6948de0","reportUrl":"https://her.reykjavik.is/embed/ced97f47-474a-567b-aaa2-ce09d6948de0/","lat":64.145501,"lng":-21.908436},{"name":"Barðinn ehf","kt":"7001690149","street":"Skútuvogur 2","postnr":"104","city":"Reykjavík","rating":2,"ratingLabel":"Aðkallandi frávik / ábendingar","lastInspection":"30. júlí 2020","lastInspectionISO":"2020-07-30","uuid":"2287879b-9d44-548a-988c-8a47d454f6d3","reportUrl":"https://her.reykjavik.is/embed/2287879b-9d44-548a-988c-8a47d454f6d3/","lat":64.140108,"lng":-21.848606},{"name":"Kaffitár","kt":"4409962649","street":"Borgartúni 10-12","postnr":"105","city":"Reykjavík","rating":2,"ratingLabel":"Aðkallandi frávik / ábendingar","lastInspection":"30. júní 2020","lastInspectionISO":"2020-06-30","uuid":"36683022-eb68-5b68-9ebd-b433ffb50c5f","reportUrl":"https://her.reykjavik.is/embed/36683022-eb68-5b68-9ebd-b433ffb50c5f/","lat":64.145087,"lng":-21.909371},{"name":"Mathöll Höfða - Sætir snúðar","kt":"6808012230","street":"Bíldshöfði 9","postnr":"110","city":"Reykjavík","rating":2,"ratingLabel":"Aðkallandi frávik / ábendingar","lastInspection":"4. júní 2020","lastInspectionISO":"2020-06-04","uuid":"2815f512-3540-50dd-bfcb-6eeaf98996a4","reportUrl":"https://her.reykjavik.is/embed/2815f512-3540-50dd-bfcb-6eeaf98996a4/","lat":64.126346,"lng":-21.821376},{"name":"The Deli","kt":"4208022180","street":"Bankastræti 14","postnr":"101","city":"Reykjavík","rating":2,"ratingLabel":"Aðkallandi frávik / ábendingar","lastInspection":"28. maí 2020","lastInspectionISO":"2020-05-28","uuid":"bc8525d1-bbe9-547b-9cf9-220dac975a95","reportUrl":"https://her.reykjavik.is/embed/bc8525d1-bbe9-547b-9cf9-220dac975a95/","lat":64.146391,"lng":-21.933291},{"name":"MIXED","kt":"6506071630","street":"Hverfisgötu 125","postnr":"105","city":"Reykjavík","rating":2,"ratingLabel":"Aðkallandi frávik / ábendingar","lastInspection":"13. maí 2020","lastInspectionISO":"2020-05-13","uuid":"fd77907f-4476-5def-91df-4453871bbc8f","reportUrl":"https://her.reykjavik.is/embed/fd77907f-4476-5def-91df-4453871bbc8f/","lat":64.143201,"lng":-21.912176},{"name":"Ísbúðin Erluís","kt":"6004200620","street":"Fákafeni 9","postnr":"108","city":"Reykjavík","rating":2,"ratingLabel":"Aðkallandi frávik / ábendingar","lastInspection":"28. apríl 2020","lastInspectionISO":"2020-04-28","uuid":"cc68c237-9655-56f2-905b-e174a09e2c12","reportUrl":"https://her.reykjavik.is/embed/cc68c237-9655-56f2-905b-e174a09e2c12/","lat":64.129656,"lng":-21.865045},{"name":"Arctic Health","kt":"4303003180","street":"Vínlandsleið 12-14","postnr":"113","city":"Reykjavík","rating":2,"ratingLabel":"Aðkallandi frávik / ábendingar","lastInspection":"22. apríl 2020","lastInspectionISO":"2020-04-22","uuid":"725fc32d-a943-5794-907e-cf8bf2d97ac3","reportUrl":"https://her.reykjavik.is/embed/725fc32d-a943-5794-907e-cf8bf2d97ac3/","lat":64.130031,"lng":-21.766538},{"name":"Grandi mathöll - Ko.Re","kt":"4803050190","street":"Grandagarði 16","postnr":"110","city":"Reykjavík","rating":2,"ratingLabel":"Aðkallandi frávik / ábendingar","lastInspection":"12. mars 2020","lastInspectionISO":"2020-03-12","uuid":"d6e8c34c-b870-58a0-8cfa-2a4031ba4abf","reportUrl":"https://her.reykjavik.is/embed/d6e8c34c-b870-58a0-8cfa-2a4031ba4abf/","lat":64.154558,"lng":-21.944096},{"name":"Grillhúsið","kt":"5107022470","street":"Tryggvagötu 20","postnr":"101","city":"Reykjavík","rating":2,"ratingLabel":"Aðkallandi frávik / ábendingar","lastInspection":"11. mars 2020","lastInspectionISO":"2020-03-11","uuid":"034949de-ea2f-5eea-91e1-7d33d8be6ec5","reportUrl":"https://her.reykjavik.is/embed/034949de-ea2f-5eea-91e1-7d33d8be6ec5/","lat":64.148844,"lng":-21.94073},{"name":"Brass Kitchen &amp; Bar","kt":"6104170780","street":"Laugavegi 66-68","postnr":"101","city":"Reykjavík","rating":2,"ratingLabel":"Aðkallandi frávik / ábendingar","lastInspection":"9. mars 2020","lastInspectionISO":"2020-03-09","uuid":"1a48e1f2-829f-5419-b619-c61b72f31566","reportUrl":"https://her.reykjavik.is/embed/1a48e1f2-829f-5419-b619-c61b72f31566/","lat":64.143995,"lng":-21.921233},{"name":"Kaffistofan Árnagarði","kt":"5401696249","street":"Sturlugötu 1","postnr":"101","city":"Reykjavík","rating":2,"ratingLabel":"Aðkallandi frávik / ábendingar","lastInspection":"4. mars 2020","lastInspectionISO":"2020-03-04","uuid":"5948e8be-d0c1-50dd-a66d-b7b8fa120ded","reportUrl":"https://her.reykjavik.is/embed/5948e8be-d0c1-50dd-a66d-b7b8fa120ded/","lat":64.138886,"lng":-21.95134},{"name":"Thai Grill","kt":"5405140620","street":"Hagamelur 67","postnr":"107","city":"Reykjavík","rating":2,"ratingLabel":"Aðkallandi frávik / ábendingar","lastInspection":"7. febrúar 2020","lastInspectionISO":"2020-02-07","uuid":"3ef3726a-6fc8-5d06-8a53-09c6532ff5b5","reportUrl":"https://her.reykjavik.is/embed/3ef3726a-6fc8-5d06-8a53-09c6532ff5b5/","lat":64.145802,"lng":-21.962596},{"name":"Hótel Cabin","kt":"7012022280","street":"Borgartúni 32, 105","postnr":null,"city":null,"rating":2,"ratingLabel":"Aðkallandi frávik / ábendingar","lastInspection":"8. janúar 2020","lastInspectionISO":"2020-01-08","uuid":"0bfb34ad-adab-5729-b62c-81652485c0fd","reportUrl":"https://her.reykjavik.is/embed/0bfb34ad-adab-5729-b62c-81652485c0fd/","lat":64.145983,"lng":-21.894224},{"name":"Grandi mathöll - Fjárhúsið","kt":"6901182890","street":"","postnr":"112","city":"Reykjavík","rating":2,"ratingLabel":"Aðkallandi frávik / ábendingar","lastInspection":"4. desember 2019","lastInspectionISO":"2019-12-04","uuid":"0c1ec304-1473-57da-b813-670015bf5590","reportUrl":"https://her.reykjavik.is/embed/0c1ec304-1473-57da-b813-670015bf5590/"},{"name":"Hamborgarasmiðjan","kt":"6501130200","street":"Grensásvegur 5-7","postnr":"108","city":"Reykjavík","rating":2,"ratingLabel":"Aðkallandi frávik / ábendingar","lastInspection":"29. október 2019","lastInspectionISO":"2019-10-29","uuid":"ffc218c9-d912-506a-ae2f-2122f4b6ea54","reportUrl":"https://her.reykjavik.is/embed/ffc218c9-d912-506a-ae2f-2122f4b6ea54/","lat":64.132215,"lng":-21.872797},{"name":"Kaffi Skúta - Skútuvogi 16","kt":"5512110290","street":"Skútuvogi 16","postnr":"104","city":"Reykjavík","rating":2,"ratingLabel":"Aðkallandi frávik / ábendingar","lastInspection":"21. október 2019","lastInspectionISO":"2019-10-21","uuid":"f60d4d20-e47b-5fd3-ab98-d9ca3d2ec752","reportUrl":"https://her.reykjavik.is/embed/f60d4d20-e47b-5fd3-ab98-d9ca3d2ec752/","lat":64.135358,"lng":-21.84891},{"name":"Radisson Blu Hótel Saga","kt":"4610150340","street":"Hagatorgi","postnr":"107","city":"Reykjavík","rating":2,"ratingLabel":"Aðkallandi frávik / ábendingar","lastInspection":"11. október 2019","lastInspectionISO":"2019-10-11","uuid":"ddf4c209-6116-52bb-bc32-a3557292786b","reportUrl":"https://her.reykjavik.is/embed/ddf4c209-6116-52bb-bc32-a3557292786b/","lat":64.144118,"lng":-21.961056},{"name":"Kaffihúsið Klapparstíg","kt":"2712544319","street":"Klapparstíg 37","postnr":"101","city":"Reykjavík","rating":2,"ratingLabel":"Aðkallandi frávik / ábendingar","lastInspection":"27. september 2019","lastInspectionISO":"2019-09-27","uuid":"a212f5d9-9889-5109-b2f0-da6b8bd6932a","reportUrl":"https://her.reykjavik.is/embed/a212f5d9-9889-5109-b2f0-da6b8bd6932a/","lat":64.144811,"lng":-21.92973},{"name":"Johansen Deli","kt":"6408150430","street":"Þórunnartún 2","postnr":"105","city":"Reykjavík","rating":2,"ratingLabel":"Aðkallandi frávik / ábendingar","lastInspection":"24. september 2019","lastInspectionISO":"2019-09-24","uuid":"0c0fd8d3-07fc-5fb1-bc23-f36e77a78a25","reportUrl":"https://her.reykjavik.is/embed/0c0fd8d3-07fc-5fb1-bc23-f36e77a78a25/","lat":64.145042,"lng":-21.910691},{"name":"Gummi Ben Bar - Tryggvagötu 22","kt":"5905172240","street":"Tryggvagötu 22","postnr":"101","city":"Reykjavík","rating":2,"ratingLabel":"Aðkallandi frávik / ábendingar","lastInspection":"20. september 2019","lastInspectionISO":"2019-09-20","uuid":"c8721cb8-0ea1-5237-8531-8625c84c6687","reportUrl":"https://her.reykjavik.is/embed/c8721cb8-0ea1-5237-8531-8625c84c6687/","lat":64.148683,"lng":-21.940253},{"name":"Le Bistro","kt":"5205101250","street":"Laugavegur 12","postnr":"101","city":"Reykjavík","rating":2,"ratingLabel":"Aðkallandi frávik / ábendingar","lastInspection":"19. ágúst 2019","lastInspectionISO":"2019-08-19","uuid":"1c0cac63-15ba-55f3-9b4c-2a3d32421294","reportUrl":"https://her.reykjavik.is/embed/1c0cac63-15ba-55f3-9b4c-2a3d32421294/","lat":64.146025,"lng":-21.931174},{"name":"Kaffi Veröld","kt":"4810151460","street":"Brynjólfsgötu 1","postnr":"101","city":"Reykjavík","rating":2,"ratingLabel":"Aðkallandi frávik / ábendingar","lastInspection":"24. júní 2019","lastInspectionISO":"2019-06-24","uuid":"eb5cdcc5-6f04-5895-b4db-6a6c8fecfef0","reportUrl":"https://her.reykjavik.is/embed/eb5cdcc5-6f04-5895-b4db-6a6c8fecfef0/","lat":64.139982,"lng":-21.952114},{"name":"Hótel Holt (nýja)","kt":"4205025910","street":"Bergstaðastræti 37","postnr":"105","city":"Reykjavík","rating":2,"ratingLabel":"Aðkallandi frávik / ábendingar","lastInspection":"26. mars 2019","lastInspectionISO":"2019-03-26","uuid":"822b41ba-a0a4-549b-b064-4661c99a9cd4","reportUrl":"https://her.reykjavik.is/embed/822b41ba-a0a4-549b-b064-4661c99a9cd4/","lat":64.142856,"lng":-21.93491},{"name":"Rakang Thai","kt":"4110140370","street":"Hraunbæ 102a","postnr":"110","city":"Reykjavík","rating":2,"ratingLabel":"Aðkallandi frávik / ábendingar","lastInspection":"14. mars 2019","lastInspectionISO":"2019-03-14","uuid":"c37fcfd0-2a25-5886-9636-ac01c17ed140","reportUrl":"https://her.reykjavik.is/embed/c37fcfd0-2a25-5886-9636-ac01c17ed140/","lat":64.117056,"lng":-21.7987},{"name":"Söluturninn, Grundarstíg 12","kt":"6901090770","street":"Grundarstíg 12","postnr":"101","city":"Reykjavík","rating":2,"ratingLabel":"Aðkallandi frávik / ábendingar","lastInspection":"12. mars 2019","lastInspectionISO":"2019-03-12","uuid":"9b0eed8b-55e5-55f1-a6c2-b999bacdb7da","reportUrl":"https://her.reykjavik.is/embed/9b0eed8b-55e5-55f1-a6c2-b999bacdb7da/","lat":64.14405,"lng":-21.935818},{"name":"Fiskbúðin Gallerý Fiskur","kt":"4803022490","street":"Nethyl 2, 110","postnr":null,"city":null,"rating":2,"ratingLabel":"Aðkallandi frávik / ábendingar","lastInspection":"27. febrúar 2019","lastInspectionISO":"2019-02-27","uuid":"46f666b2-7cd7-569b-b194-ec15a9e0020b","reportUrl":"https://her.reykjavik.is/embed/46f666b2-7cd7-569b-b194-ec15a9e0020b/","lat":64.12169,"lng":-21.813686},{"name":"Elli- og Hjúkrunarheimilið Grund","kt":"5801691209","street":"Hringbraut 50, 107","postnr":null,"city":null,"rating":2,"ratingLabel":"Aðkallandi frávik / ábendingar","lastInspection":"18. febrúar 2019","lastInspectionISO":"2019-02-18","uuid":"12502f48-a4cd-5799-8091-59b7a0501721","reportUrl":"https://her.reykjavik.is/embed/12502f48-a4cd-5799-8091-59b7a0501721/","lat":64.145249,"lng":-21.951784},{"name":"Wilson Pizza Eddufelli 6","kt":"5802150170","street":"Eddufelli 6","postnr":"111","city":"Reykjavík","rating":2,"ratingLabel":"Aðkallandi frávik / ábendingar","lastInspection":"13. febrúar 2019","lastInspectionISO":"2019-02-13","uuid":"defc5de0-13de-5a8a-8ccf-011f0fc3afa5","reportUrl":"https://her.reykjavik.is/embed/defc5de0-13de-5a8a-8ccf-011f0fc3afa5/","lat":64.101338,"lng":-21.823518},{"name":"10-11","kt":"4707100470","street":"Barónsstíg 2-4","postnr":"101","city":"Reykjavík","rating":2,"ratingLabel":"Aðkallandi frávik / ábendingar","lastInspection":"11. febrúar 2019","lastInspectionISO":"2019-02-11","uuid":"1aa55294-ae38-5855-83db-f70258376ac8","reportUrl":"https://her.reykjavik.is/embed/1aa55294-ae38-5855-83db-f70258376ac8/","lat":64.144946,"lng":-21.918126},{"name":"Kaffi Garður","kt":"4609992439","street":"Skútuvogi 16","postnr":"104","city":"Reykjavík","rating":2,"ratingLabel":"Aðkallandi frávik / ábendingar","lastInspection":"14. janúar 2019","lastInspectionISO":"2019-01-14","uuid":"54026cd8-81cc-5f61-a4eb-33bed893989d","reportUrl":"https://her.reykjavik.is/embed/54026cd8-81cc-5f61-a4eb-33bed893989d/","lat":64.135358,"lng":-21.84891},{"name":"Íslenska hamborgarafabrikkan - Kringlunni 4-12","kt":"6901091310","street":"Kringlan 4-12","postnr":"103","city":"Reykjavík","rating":2,"ratingLabel":"Aðkallandi frávik / ábendingar","lastInspection":"27. nóvember 2018","lastInspectionISO":"2018-11-27","uuid":"6f2e4221-d6b2-5324-af4b-47bb21166305","reportUrl":"https://her.reykjavik.is/embed/6f2e4221-d6b2-5324-af4b-47bb21166305/","lat":64.131215,"lng":-21.895295},{"name":"10-11","kt":"4707100470","street":"Suðurfelli 4","postnr":"111","city":"Reykjavík","rating":2,"ratingLabel":"Aðkallandi frávik / ábendingar","lastInspection":"1. nóvember 2018","lastInspectionISO":"2018-11-01","uuid":"b3878c3d-3068-5ffa-98ed-500a77006356","reportUrl":"https://her.reykjavik.is/embed/b3878c3d-3068-5ffa-98ed-500a77006356/","lat":64.101762,"lng":-21.830658},{"name":"Sushibarinn","kt":"4407032240","street":"Kringlan 4-12","postnr":"103","city":"Reykjavík","rating":2,"ratingLabel":"Aðkallandi frávik / ábendingar","lastInspection":"25. október 2018","lastInspectionISO":"2018-10-25","uuid":"79625e14-02c3-54da-a423-0fbd00aa9fb4","reportUrl":"https://her.reykjavik.is/embed/79625e14-02c3-54da-a423-0fbd00aa9fb4/","lat":64.131215,"lng":-21.895295},{"name":"Kaffihúsið Garðurinn","kt":"2712544319","street":"Klapparstíg 37","postnr":"101","city":"Reykjavík","rating":3,"ratingLabel":"Frávik / ábendingar","lastInspection":"20. apríl 2026","lastInspectionISO":"2026-04-20","uuid":"b8557f65-8bd3-5297-8b53-94ed9ff09af6","reportUrl":"https://her.reykjavik.is/embed/b8557f65-8bd3-5297-8b53-94ed9ff09af6/","lat":64.144811,"lng":-21.92973},{"name":"Mathöll Pósthússtræti - Fuku Mama","kt":"5403221710","street":"Pósthússtræti -5","postnr":"101","city":"Reykjavík","rating":3,"ratingLabel":"Frávik / ábendingar","lastInspection":"16. apríl 2026","lastInspectionISO":"2026-04-16","uuid":"1b20e540-2f0b-5f64-a89b-2c89d04a641b","reportUrl":"https://her.reykjavik.is/embed/1b20e540-2f0b-5f64-a89b-2c89d04a641b/","lat":64.147805,"lng":-21.938512},{"name":"Mathöll Hafnartorg Gallerý - Brand Vín &amp; Grill - Geirsgötu 17","kt":"5809251030","street":"Geirsgötu 17","postnr":"101","city":"Reykjavík","rating":3,"ratingLabel":"Frávik / ábendingar","lastInspection":"18. mars 2026","lastInspectionISO":"2026-03-18","uuid":"4d1f659c-c64a-5b19-953d-89bfdefd69a9","reportUrl":"https://her.reykjavik.is/embed/4d1f659c-c64a-5b19-953d-89bfdefd69a9/","lat":64.149025,"lng":-21.936677},{"name":"La Barceloneta","kt":"5705210470","street":"Templarasundi 3","postnr":"101","city":"Reykjavík","rating":3,"ratingLabel":"Frávik / ábendingar","lastInspection":"12. mars 2026","lastInspectionISO":"2026-03-12","uuid":"d379e3d7-186b-5f8d-94cc-157c6eb6dd72","reportUrl":"https://her.reykjavik.is/embed/d379e3d7-186b-5f8d-94cc-157c6eb6dd72/","lat":64.146312,"lng":-21.939802},{"name":"Kjöthöllin","kt":"5605191250","street":"Skipholti 70","postnr":"105","city":"Reykjavík","rating":3,"ratingLabel":"Frávik / ábendingar","lastInspection":"12. mars 2026","lastInspectionISO":"2026-03-12","uuid":"1c548ad4-9c9c-56df-b63b-b3068eaaf198","reportUrl":"https://her.reykjavik.is/embed/1c548ad4-9c9c-56df-b63b-b3068eaaf198/","lat":64.137628,"lng":-21.897594},{"name":"Mathöll Hafnartorg Gallerý - Neó Pizza - Geirsgötu 17","kt":"5303170990","street":"Geirsgötu 17","postnr":"101","city":"Reykjavík","rating":3,"ratingLabel":"Frávik / ábendingar","lastInspection":"19. febrúar 2026","lastInspectionISO":"2026-02-19","uuid":"8d6b728f-8edd-504f-bee4-9e26fe1fb6a8","reportUrl":"https://her.reykjavik.is/embed/8d6b728f-8edd-504f-bee4-9e26fe1fb6a8/","lat":64.149025,"lng":-21.936677},{"name":"Torfan veitingahús","kt":"6901250640","street":"Amtmannsstíg 1","postnr":"101","city":"Reykjavík","rating":3,"ratingLabel":"Frávik / ábendingar","lastInspection":"12. febrúar 2026","lastInspectionISO":"2026-02-12","uuid":"08ea326e-2a7d-5341-90f6-3639fc5861b0","reportUrl":"https://her.reykjavik.is/embed/08ea326e-2a7d-5341-90f6-3639fc5861b0/","lat":64.146447,"lng":-21.936295},{"name":"Mathöll Borgartúni - Tasty - Borgartúni 29","kt":"5608070310","street":"Borgartúni 29, 105","postnr":null,"city":null,"rating":3,"ratingLabel":"Frávik / ábendingar","lastInspection":"27. janúar 2026","lastInspectionISO":"2026-01-27","uuid":"a8679fb3-b67e-5ba2-a6ad-2f27d215be00","reportUrl":"https://her.reykjavik.is/embed/a8679fb3-b67e-5ba2-a6ad-2f27d215be00/","lat":64.146195,"lng":-21.899358},{"name":"Mötuneyti Bjarkarási","kt":"6302690759","street":"Stjörnugróf 9","postnr":"108","city":"Reykjavík","rating":3,"ratingLabel":"Frávik / ábendingar","lastInspection":"6. janúar 2026","lastInspectionISO":"2026-01-06","uuid":"c8fa61c0-ccb0-50d4-b44c-dd74118b386c","reportUrl":"https://her.reykjavik.is/embed/c8fa61c0-ccb0-50d4-b44c-dd74118b386c/","lat":64.11937,"lng":-21.849863},{"name":"Mokka Kaffi","kt":"5907170100","street":"Skólavörðustíg 3a","postnr":"101","city":"Reykjavík","rating":3,"ratingLabel":"Frávik / ábendingar","lastInspection":"17. október 2025","lastInspectionISO":"2025-10-17","uuid":"711169f3-fe98-5d6e-bfbe-de8faa8a8d78","reportUrl":"https://her.reykjavik.is/embed/711169f3-fe98-5d6e-bfbe-de8faa8a8d78/","lat":64.146033,"lng":-21.932307},{"name":"Pizza -Pizza ehf","kt":"4802932669","street":"Lóuhólum 2-6","postnr":"111","city":"Reykjavík","rating":3,"ratingLabel":"Frávik / ábendingar","lastInspection":"15. október 2025","lastInspectionISO":"2025-10-15","uuid":"bcb0cece-1f3e-5e74-b780-72a3110f7f47","reportUrl":"https://her.reykjavik.is/embed/bcb0cece-1f3e-5e74-b780-72a3110f7f47/","lat":64.108963,"lng":-21.815972},{"name":"Mötuneyti Tækniskólans","kt":"5308151100","street":"Háteigsvegi","postnr":"105","city":"Reykjavík","rating":3,"ratingLabel":"Frávik / ábendingar","lastInspection":"1. september 2025","lastInspectionISO":"2025-09-01","uuid":"94de3d9c-395b-55eb-869c-fb6323989eb0","reportUrl":"https://her.reykjavik.is/embed/94de3d9c-395b-55eb-869c-fb6323989eb0/","lat":64.138364,"lng":-21.906587},{"name":"Verslunarskóli Íslands","kt":"6902691399","street":"Ofanleiti 1","postnr":"103","city":"Reykjavík","rating":3,"ratingLabel":"Frávik / ábendingar","lastInspection":"21. ágúst 2025","lastInspectionISO":"2025-08-21","uuid":"532f308a-c388-542c-aa0a-460aa6ca53bc","reportUrl":"https://her.reykjavik.is/embed/532f308a-c388-542c-aa0a-460aa6ca53bc/","lat":64.12784,"lng":-21.896292},{"name":"American Bar","kt":"4312141800","street":"Austurstræti 8-10","postnr":"101","city":"Reykjavík","rating":3,"ratingLabel":"Frávik / ábendingar","lastInspection":"18. ágúst 2025","lastInspectionISO":"2025-08-18","uuid":"ed6199e4-d291-58be-a623-29b4e9a60cfe","reportUrl":"https://her.reykjavik.is/embed/ed6199e4-d291-58be-a623-29b4e9a60cfe/","lat":64.147715,"lng":-21.940056},{"name":"Tokyo Sushi","kt":"6707100920","street":"Skeifunni 19","postnr":"108","city":"Reykjavík","rating":3,"ratingLabel":"Frávik / ábendingar","lastInspection":"22. júlí 2025","lastInspectionISO":"2025-07-22","uuid":"99224858-751b-5ef4-ae70-254ba16bf9ec","reportUrl":"https://her.reykjavik.is/embed/99224858-751b-5ef4-ae70-254ba16bf9ec/","lat":64.130072,"lng":-21.873021},{"name":"Grillmarkaðurinn","kt":"5802110380","street":"Lækjargata 2b","postnr":"101","city":"Reykjavík","rating":3,"ratingLabel":"Frávik / ábendingar","lastInspection":"9. júlí 2025","lastInspectionISO":"2025-07-09","uuid":"cf4d20e9-daf6-5057-8f3d-ef35fb6da0bf","reportUrl":"https://her.reykjavik.is/embed/cf4d20e9-daf6-5057-8f3d-ef35fb6da0bf/","lat":64.14715,"lng":-21.93712},{"name":"Mathöll Hafnartorg Gallerý - Brand Vín &amp; Grill","kt":"4906221360","street":"Geirsgötu 19","postnr":"101","city":"Reykjavík","rating":3,"ratingLabel":"Frávik / ábendingar","lastInspection":"3. júlí 2025","lastInspectionISO":"2025-07-03","uuid":"49023832-cca5-512b-921b-1d0f1ec576eb","reportUrl":"https://her.reykjavik.is/embed/49023832-cca5-512b-921b-1d0f1ec576eb/","lat":64.143161,"lng":-21.937521},{"name":"Grandi mathöll - Ko.Re","kt":"4411161790","street":"Grandagarði 16","postnr":"101","city":"Reykjavík","rating":3,"ratingLabel":"Frávik / ábendingar","lastInspection":"3. júlí 2025","lastInspectionISO":"2025-07-03","uuid":"d97fbc9c-9f22-592c-8b31-73137422f5ee","reportUrl":"https://her.reykjavik.is/embed/d97fbc9c-9f22-592c-8b31-73137422f5ee/","lat":64.154558,"lng":-21.944096},{"name":"Sundhöll Reykjavíkur","kt":"5302697609","street":"Barónsstíg","postnr":"101","city":"Reykjavík","rating":3,"ratingLabel":"Frávik / ábendingar","lastInspection":"30. júní 2025","lastInspectionISO":"2025-06-30","uuid":"05506e59-f7b3-5158-aa58-1453aad9fbd2","reportUrl":"https://her.reykjavik.is/embed/05506e59-f7b3-5158-aa58-1453aad9fbd2/","lat":64.141042,"lng":-21.923373},{"name":"Ísbúðin Laugalæk","kt":"4107130120","street":"Laugalæk 8","postnr":"105","city":"Reykjavík","rating":3,"ratingLabel":"Frávik / ábendingar","lastInspection":"27. júní 2025","lastInspectionISO":"2025-06-27","uuid":"1fe228fb-fe98-53a0-8de4-87254e02f11a","reportUrl":"https://her.reykjavik.is/embed/1fe228fb-fe98-53a0-8de4-87254e02f11a/","lat":64.148223,"lng":-21.884023},{"name":"Miðborg - Barónsborg","kt":"5007962359","street":"Njálsgötu 70","postnr":"101","city":"Reykjavík","rating":3,"ratingLabel":"Frávik / ábendingar","lastInspection":"25. júní 2025","lastInspectionISO":"2025-06-25","uuid":"05e42e3d-a671-5de3-87d9-e091d6b47568","reportUrl":"https://her.reykjavik.is/embed/05e42e3d-a671-5de3-87d9-e091d6b47568/","lat":64.142395,"lng":-21.919974},{"name":"Kaffibarinn Ehf","kt":"6308932249","street":"Bergstaðastræti 1","postnr":"101","city":"Reykjavík","rating":3,"ratingLabel":"Frávik / ábendingar","lastInspection":"15. maí 2025","lastInspectionISO":"2025-05-15","uuid":"57029ed1-aae2-5bf0-99c0-9386ae24d342","reportUrl":"https://her.reykjavik.is/embed/57029ed1-aae2-5bf0-99c0-9386ae24d342/","lat":64.145936,"lng":-21.93133},{"name":"Veitingaskipið Fífill","kt":"6004012030","street":"Ægisgarði 7","postnr":"101","city":"Reykjavík","rating":3,"ratingLabel":"Frávik / ábendingar","lastInspection":"14. maí 2025","lastInspectionISO":"2025-05-14","uuid":"b9d2f4af-f91f-5ab7-b2fc-f8415ad0cddc","reportUrl":"https://her.reykjavik.is/embed/b9d2f4af-f91f-5ab7-b2fc-f8415ad0cddc/","lat":64.151997,"lng":-21.943309},{"name":"Domino&#39;s Pizza","kt":"4802932669","street":"Spönginni 17","postnr":"112","city":"Reykjavík","rating":3,"ratingLabel":"Frávik / ábendingar","lastInspection":"5. maí 2025","lastInspectionISO":"2025-05-05","uuid":"37517eb8-7342-57d7-b8f4-5a2836c852d3","reportUrl":"https://her.reykjavik.is/embed/37517eb8-7342-57d7-b8f4-5a2836c852d3/","lat":64.150938,"lng":-21.788667},{"name":"Ísbúðin Valdís - Laugavegi 42B","kt":"4803181880","street":"Laugavegi 42B","postnr":"101","city":"Reykjavík","rating":3,"ratingLabel":"Frávik / ábendingar","lastInspection":"23. apríl 2025","lastInspectionISO":"2025-04-23","uuid":"51573c83-04db-5779-bcfd-a86366b45055","reportUrl":"https://her.reykjavik.is/embed/51573c83-04db-5779-bcfd-a86366b45055/","lat":64.14487,"lng":-21.925373},{"name":"Bakaríið Brauðhúsið ehf","kt":"6812944229","street":"Efstalandi 26, 108","postnr":null,"city":null,"rating":3,"ratingLabel":"Frávik / ábendingar","lastInspection":"14. apríl 2025","lastInspectionISO":"2025-04-14","uuid":"d4a99dd4-af2e-5c31-b96a-077a3c61d619","reportUrl":"https://her.reykjavik.is/embed/d4a99dd4-af2e-5c31-b96a-077a3c61d619/","lat":64.122109,"lng":-21.875234},{"name":"Leikskólinn Mánagarður","kt":"5401696249","street":"Eggertsgötu 34, 101","postnr":null,"city":null,"rating":3,"ratingLabel":"Frávik / ábendingar","lastInspection":"7. apríl 2025","lastInspectionISO":"2025-04-07","uuid":"2dfaccb7-1e45-502e-b63f-dbcc0dd820b0","reportUrl":"https://her.reykjavik.is/embed/2dfaccb7-1e45-502e-b63f-dbcc0dd820b0/","lat":64.134772,"lng":-21.949592},{"name":"Mathöll Borgartúni - Umami Sushi og bar","kt":"4812201060","street":"Borgartún 29","postnr":"105","city":"Reykjavík","rating":3,"ratingLabel":"Frávik / ábendingar","lastInspection":"3. apríl 2025","lastInspectionISO":"2025-04-03","uuid":"2910836d-608a-5d57-96f2-0df9f14c5dd5","reportUrl":"https://her.reykjavik.is/embed/2910836d-608a-5d57-96f2-0df9f14c5dd5/","lat":64.146195,"lng":-21.899358},{"name":"Vinnustofa Kjarval","kt":"6704180140","street":"Austurstræti 12","postnr":null,"city":null,"rating":3,"ratingLabel":"Frávik / ábendingar","lastInspection":"27. mars 2025","lastInspectionISO":"2025-03-27","uuid":"39cd10b7-ec69-55db-8ea0-49713c887b59","reportUrl":"https://her.reykjavik.is/embed/39cd10b7-ec69-55db-8ea0-49713c887b59/","lat":64.147594,"lng":-21.939339},{"name":"Ísbúð Huppu","kt":"5305151920","street":"Spönginni 25","postnr":"112","city":"Reykjavík","rating":3,"ratingLabel":"Frávik / ábendingar","lastInspection":"19. mars 2025","lastInspectionISO":"2025-03-19","uuid":"2142c274-ed67-5f7e-ba47-ae2a20167763","reportUrl":"https://her.reykjavik.is/embed/2142c274-ed67-5f7e-ba47-ae2a20167763/","lat":64.150678,"lng":-21.787446},{"name":"Sumac Grill + drinks","kt":"6111160120","street":"Laugavegi 28","postnr":"101","city":"Reykjavík","rating":3,"ratingLabel":"Frávik / ábendingar","lastInspection":"13. mars 2025","lastInspectionISO":"2025-03-13","uuid":"4636ba9c-894c-5eca-9a69-132d996604c0","reportUrl":"https://her.reykjavik.is/embed/4636ba9c-894c-5eca-9a69-132d996604c0/","lat":64.145331,"lng":-21.927955},{"name":"Klambrar Bistro","kt":"4705150660","street":"Flókagötu 24, 105","postnr":null,"city":null,"rating":3,"ratingLabel":"Frávik / ábendingar","lastInspection":"13. mars 2025","lastInspectionISO":"2025-03-13","uuid":"63bf2cd6-3203-5f2e-9275-9cc27a472f61","reportUrl":"https://her.reykjavik.is/embed/63bf2cd6-3203-5f2e-9275-9cc27a472f61/","lat":64.137892,"lng":-21.913473},{"name":"Mötuneyti Á T V R","kt":"4101694369","street":"Stuðlahálsi 2, 110","postnr":null,"city":null,"rating":3,"ratingLabel":"Frávik / ábendingar","lastInspection":"10. mars 2025","lastInspectionISO":"2025-03-10","uuid":"9b14cb34-f0b3-5fca-8508-e762bdef836f","reportUrl":"https://her.reykjavik.is/embed/9b14cb34-f0b3-5fca-8508-e762bdef836f/","lat":64.119824,"lng":-21.792098},{"name":"Mörk hjúkrunarheimili","kt":"6005100100","street":"Suðurlandsbraut 66","postnr":"108","city":"Reykjavík","rating":3,"ratingLabel":"Frávik / ábendingar","lastInspection":"6. mars 2025","lastInspectionISO":"2025-03-06","uuid":"5a9b2124-94b2-55ae-905a-ecf821936a61","reportUrl":"https://her.reykjavik.is/embed/5a9b2124-94b2-55ae-905a-ecf821936a61/","lat":64.127558,"lng":-21.857585},{"name":"Reykjavík Bakarí","kt":"6206211370","street":"Vagnhöfða 13","postnr":"110","city":"Reykjavík","rating":3,"ratingLabel":"Frávik / ábendingar","lastInspection":"5. mars 2025","lastInspectionISO":"2025-03-05","uuid":"6318d9cd-774d-500e-ba2a-cae62fa2d1d8","reportUrl":"https://her.reykjavik.is/embed/6318d9cd-774d-500e-ba2a-cae62fa2d1d8/","lat":64.127156,"lng":-21.816513},{"name":"Mötuneytið Borgartúni 12-14","kt":"5704800149","street":"Borgartúni 12-14","postnr":"105","city":"Reykjavík","rating":3,"ratingLabel":"Frávik / ábendingar","lastInspection":"12. febrúar 2025","lastInspectionISO":"2025-02-12","uuid":"a4393d9e-a2b1-59df-b080-ec4eea485aab","reportUrl":"https://her.reykjavik.is/embed/a4393d9e-a2b1-59df-b080-ec4eea485aab/","lat":64.145029,"lng":-21.909116},{"name":"Mathöll Pósthús Food Hall - Pizza PoPolare","kt":"4908221940","street":"Pósthússtræti 3-5","postnr":"101","city":"Reykjavík","rating":3,"ratingLabel":"Frávik / ábendingar","lastInspection":"10. febrúar 2025","lastInspectionISO":"2025-02-10","uuid":"3feb2fbe-ba38-532c-9c36-320b12f418fe","reportUrl":"https://her.reykjavik.is/embed/3feb2fbe-ba38-532c-9c36-320b12f418fe/","lat":64.147872,"lng":-21.938159},{"name":"Miðborg - Vörðuborg","kt":"5302697609","street":"Barónsstígur 34","postnr":"101","city":"Reykjavík","rating":3,"ratingLabel":"Frávik / ábendingar","lastInspection":"30. janúar 2025","lastInspectionISO":"2025-01-30","uuid":"da8214df-d482-5a22-b8f8-150408a4f5cd","reportUrl":"https://her.reykjavik.is/embed/da8214df-d482-5a22-b8f8-150408a4f5cd/","lat":64.141264,"lng":-21.924572},{"name":"Dominos Pizza","kt":"4802932669","street":"Skúlagata 17","postnr":"101","city":"Reykjavík","rating":3,"ratingLabel":"Frávik / ábendingar","lastInspection":"27. janúar 2025","lastInspectionISO":"2025-01-27","uuid":"755643c8-bb5e-5be5-87e0-50e59cb6d3d3","reportUrl":"https://her.reykjavik.is/embed/755643c8-bb5e-5be5-87e0-50e59cb6d3d3/","lat":64.145595,"lng":-21.917922},{"name":"Kaffihús Vesturbæjar","kt":"5702141280","street":"Melhaga 20-22","postnr":"107","city":"Reykjavík","rating":3,"ratingLabel":"Frávik / ábendingar","lastInspection":"23. janúar 2025","lastInspectionISO":"2025-01-23","uuid":"c6396c8d-c1f8-5a85-a588-af59e8ac8c7f","reportUrl":"https://her.reykjavik.is/embed/c6396c8d-c1f8-5a85-a588-af59e8ac8c7f/","lat":64.144031,"lng":-21.960712},{"name":"Vinagarður","kt":"5901760369","street":"Holtavegi 28","postnr":"104","city":"Reykjavík","rating":3,"ratingLabel":"Frávik / ábendingar","lastInspection":"18. desember 2024","lastInspectionISO":"2024-12-18","uuid":"720c138e-7e27-59c7-a1fe-ae8f4a66d479","reportUrl":"https://her.reykjavik.is/embed/720c138e-7e27-59c7-a1fe-ae8f4a66d479/","lat":64.138997,"lng":-21.862259},{"name":"Ægir Bar","kt":"7012221480","street":"Laugavegi 2","postnr":"101","city":"Reykjavík","rating":3,"ratingLabel":"Frávik / ábendingar","lastInspection":"16. desember 2024","lastInspectionISO":"2024-12-16","uuid":"848a2569-8f9a-523a-a4b2-1fbf7133aaad","reportUrl":"https://her.reykjavik.is/embed/848a2569-8f9a-523a-a4b2-1fbf7133aaad/","lat":64.146345,"lng":-21.932716},{"name":"Skóli Ísaks Jónssonar","kt":"6002694889","street":"Bólstaðarhlíð 20","postnr":"105","city":"Reykjavík","rating":3,"ratingLabel":"Frávik / ábendingar","lastInspection":"16. desember 2024","lastInspectionISO":"2024-12-16","uuid":"fea12cef-7ac8-525c-b139-305e47485155","reportUrl":"https://her.reykjavik.is/embed/fea12cef-7ac8-525c-b139-305e47485155/","lat":64.135522,"lng":-21.904548},{"name":"Mötuneyti Rúv","kt":"6003070450","street":"Efstaleiti 1","postnr":"150","city":"Reykjavík","rating":3,"ratingLabel":"Frávik / ábendingar","lastInspection":"11. desember 2024","lastInspectionISO":"2024-12-11","uuid":"f9264746-73e8-547e-9c3f-fd444fb54308","reportUrl":"https://her.reykjavik.is/embed/f9264746-73e8-547e-9c3f-fd444fb54308/","lat":64.125398,"lng":-21.891297},{"name":"Kaffistofan Læknagarði","kt":"5401696249","street":"Vatnsmýrarvegi 16","postnr":"101","city":"Reykjavík","rating":3,"ratingLabel":"Frávik / ábendingar","lastInspection":"6. desember 2024","lastInspectionISO":"2024-12-06","uuid":"26ff0797-7e3f-533d-ae12-102bad90c0be","reportUrl":"https://her.reykjavik.is/embed/26ff0797-7e3f-533d-ae12-102bad90c0be/","lat":64.136757,"lng":-21.929224},{"name":"Ægisborg","kt":"5302697609","street":"Ægisíðu 104","postnr":"107","city":"Reykjavík","rating":3,"ratingLabel":"Frávik / ábendingar","lastInspection":"3. desember 2024","lastInspectionISO":"2024-12-03","uuid":"b1fd68f6-5ec2-56ed-b131-eace69424116","reportUrl":"https://her.reykjavik.is/embed/b1fd68f6-5ec2-56ed-b131-eace69424116/","lat":64.144478,"lng":-21.968089},{"name":"Mötuneyti Origo","kt":"4507231690","street":"Borgartúni 37","postnr":"105","city":"Reykjavík","rating":3,"ratingLabel":"Frávik / ábendingar","lastInspection":"2. desember 2024","lastInspectionISO":"2024-12-02","uuid":"b6b13098-f7b0-5849-a072-374db65240ec","reportUrl":"https://her.reykjavik.is/embed/b6b13098-f7b0-5849-a072-374db65240ec/","lat":64.146879,"lng":-21.894577},{"name":"Hamborgarabúlla Tómasar","kt":"7103062140","street":"Bíldshöfði 18","postnr":"110","city":"Reykjavík","rating":3,"ratingLabel":"Frávik / ábendingar","lastInspection":"28. nóvember 2024","lastInspectionISO":"2024-11-28","uuid":"38c0e816-72c4-515e-87c9-6a1ada808612","reportUrl":"https://her.reykjavik.is/embed/38c0e816-72c4-515e-87c9-6a1ada808612/","lat":64.125316,"lng":-21.816757},{"name":"Nauthóll - Norrænn bistro","kt":"4705090230","street":"Hlíðarfæti 75","postnr":"101","city":"Reykjavík","rating":3,"ratingLabel":"Frávik / ábendingar","lastInspection":"20. nóvember 2024","lastInspectionISO":"2024-11-20","uuid":"6a20e787-9812-5d5a-8e4f-8de1eabbcf0f","reportUrl":"https://her.reykjavik.is/embed/6a20e787-9812-5d5a-8e4f-8de1eabbcf0f/","lat":64.143161,"lng":-21.937521},{"name":"Hamborgarabúlla Tómasar","kt":"7103062140","street":"Spönginni 11","postnr":"112","city":"Reykjavík","rating":3,"ratingLabel":"Frávik / ábendingar","lastInspection":"20. nóvember 2024","lastInspectionISO":"2024-11-20","uuid":"a7699917-78b9-598a-914f-3fdd63c08804","reportUrl":"https://her.reykjavik.is/embed/a7699917-78b9-598a-914f-3fdd63c08804/","lat":64.150656,"lng":-21.789338},{"name":"Mötuneyti Sjóvár-Almennra trygginga","kt":"6509091270","street":"Kringlunni 5","postnr":"103","city":"Reykjavík","rating":3,"ratingLabel":"Frávik / ábendingar","lastInspection":"23. október 2024","lastInspectionISO":"2024-10-23","uuid":"3687c9e4-793f-55fd-a128-1b92e8fe3ff1","reportUrl":"https://her.reykjavik.is/embed/3687c9e4-793f-55fd-a128-1b92e8fe3ff1/","lat":64.130664,"lng":-21.897377},{"name":"Kramhúsið ehf","kt":"4807972059","street":"Skólavörðustíg 12","postnr":"101","city":"Reykjavík","rating":3,"ratingLabel":"Frávik / ábendingar","lastInspection":"23. október 2024","lastInspectionISO":"2024-10-23","uuid":"7c47a2d8-65f7-5d67-8d17-b8cfaede6689","reportUrl":"https://her.reykjavik.is/embed/7c47a2d8-65f7-5d67-8d17-b8cfaede6689/","lat":64.145437,"lng":-21.932038},{"name":"Mötuneyti Borgarholtsskóla (Matfang)","kt":"4207140760","street":"Mosavegi","postnr":"112","city":"Reykjavík","rating":3,"ratingLabel":"Frávik / ábendingar","lastInspection":"22. október 2024","lastInspectionISO":"2024-10-22","uuid":"4c233ec6-6457-5263-8f17-58c48dc6a665","reportUrl":"https://her.reykjavik.is/embed/4c233ec6-6457-5263-8f17-58c48dc6a665/","lat":64.139064,"lng":-21.785336},{"name":"Mötuneyti Advania","kt":"5902697199","street":"Guðrúnartúni 10","postnr":"105","city":"Reykjavík","rating":3,"ratingLabel":"Frávik / ábendingar","lastInspection":"21. október 2024","lastInspectionISO":"2024-10-21","uuid":"7661cf8d-8103-5ac2-aa1a-1610a00cbfe3","reportUrl":"https://her.reykjavik.is/embed/7661cf8d-8103-5ac2-aa1a-1610a00cbfe3/","lat":64.14647,"lng":-21.908503},{"name":"Mötuneyti Kviku banka","kt":"5405022930","street":"Katrínartúni 2","postnr":"105","city":"Reykjavík","rating":3,"ratingLabel":"Frávik / ábendingar","lastInspection":"8. október 2024","lastInspectionISO":"2024-10-08","uuid":"9a9c0a01-1aa4-559a-bb07-042f5283ea06","reportUrl":"https://her.reykjavik.is/embed/9a9c0a01-1aa4-559a-bb07-042f5283ea06/","lat":64.144934,"lng":-21.907357},{"name":"Mötuneyti CCP","kt":"4506973469","street":"Bjargargötu 1","postnr":"102","city":"Reykjavík","rating":3,"ratingLabel":"Frávik / ábendingar","lastInspection":"4. október 2024","lastInspectionISO":"2024-10-04","uuid":"e9ef63c1-2b04-5d49-b07c-baafc51cbb1c","reportUrl":"https://her.reykjavik.is/embed/e9ef63c1-2b04-5d49-b07c-baafc51cbb1c/","lat":64.136484,"lng":-21.946944},{"name":"Pasta Bites ehf","kt":"6105241920","street":"Matarsmiðja Matís, Vínlandsleið 12 - 14","postnr":"113","city":"Reykjavík","rating":3,"ratingLabel":"Frávik / ábendingar","lastInspection":"18. september 2024","lastInspectionISO":"2024-09-18","uuid":"7781eeef-dea1-5cd2-ac6d-474ea582dcad","reportUrl":"https://her.reykjavik.is/embed/7781eeef-dea1-5cd2-ac6d-474ea582dcad/","lat":64.130031,"lng":-21.766538},{"name":"Grandi 101","kt":"4411162170","street":"Fiskislóð 49-57","postnr":"101","city":"Reykjavík","rating":3,"ratingLabel":"Frávik / ábendingar","lastInspection":"12. september 2024","lastInspectionISO":"2024-09-12","uuid":"520a4739-abe4-504b-9822-31effa3d76e5","reportUrl":"https://her.reykjavik.is/embed/520a4739-abe4-504b-9822-31effa3d76e5/","lat":64.156346,"lng":-21.946181},{"name":"Mötuneyti Skógarhlíð 12 (Global taste ehf.)","kt":"5208191500","street":"Skógarhlíð 12","postnr":"105","city":"Reykjavík","rating":3,"ratingLabel":"Frávik / ábendingar","lastInspection":"12. september 2024","lastInspectionISO":"2024-09-12","uuid":"f083ae5a-5f7c-5569-8ead-5400f13d81f7","reportUrl":"https://her.reykjavik.is/embed/f083ae5a-5f7c-5569-8ead-5400f13d81f7/","lat":64.133349,"lng":-21.919675},{"name":"Mathöll Borgartúni - Boom Boom","kt":"6403220550","street":"Borgartúni 29","postnr":"105","city":"Reykjavík","rating":3,"ratingLabel":"Frávik / ábendingar","lastInspection":"12. september 2024","lastInspectionISO":"2024-09-12","uuid":"4b232885-5d9d-5ddf-b2f2-ec691d145f00","reportUrl":"https://her.reykjavik.is/embed/4b232885-5d9d-5ddf-b2f2-ec691d145f00/","lat":64.146195,"lng":-21.899358},{"name":"Mötuneyti Húsasmiðjunnar","kt":"5512110290","street":"Kjalarvogi 12","postnr":"104","city":"Reykjavík","rating":3,"ratingLabel":"Frávik / ábendingar","lastInspection":"10. september 2024","lastInspectionISO":"2024-09-10","uuid":"e24e08aa-18d0-5e90-8c8e-efa939580435","reportUrl":"https://her.reykjavik.is/embed/e24e08aa-18d0-5e90-8c8e-efa939580435/","lat":64.136192,"lng":-21.841405},{"name":"Mötuneyti Eflu verkfræðistofu","kt":"6210790189","street":"Lyngháls 4","postnr":"110","city":"Reykjavík","rating":3,"ratingLabel":"Frávik / ábendingar","lastInspection":"5. september 2024","lastInspectionISO":"2024-09-05","uuid":"0e5d0df7-73f6-510c-8672-90ffcb201a43","reportUrl":"https://her.reykjavik.is/embed/0e5d0df7-73f6-510c-8672-90ffcb201a43/","lat":64.120314,"lng":-21.793668},{"name":"Snyrtistofa Helgu","kt":"2010615129","street":"Hraunbæ 105","postnr":"110","city":"Reykjavík","rating":3,"ratingLabel":"Frávik / ábendingar","lastInspection":"21. ágúst 2024","lastInspectionISO":"2024-08-21","uuid":"059ba3e3-5fe7-5df0-888d-6351d817b107","reportUrl":"https://her.reykjavik.is/embed/059ba3e3-5fe7-5df0-888d-6351d817b107/","lat":64.120358,"lng":-21.809451},{"name":"Mötuneyti Menntaskólans við Sund","kt":"6201691539","street":"Gnoðarvogi 43","postnr":"104","city":"Reykjavík","rating":3,"ratingLabel":"Frávik / ábendingar","lastInspection":"8. ágúst 2024","lastInspectionISO":"2024-08-08","uuid":"03f6adb3-84e6-51dd-a16e-053e790e398f","reportUrl":"https://her.reykjavik.is/embed/03f6adb3-84e6-51dd-a16e-053e790e398f/","lat":64.131253,"lng":-21.859682},{"name":"Vík Verslun","kt":"4801730159","street":"Aðalstræti 2","postnr":null,"city":null,"rating":3,"ratingLabel":"Frávik / ábendingar","lastInspection":"29. júlí 2024","lastInspectionISO":"2024-07-29","uuid":"ec9ebbdc-ae01-5245-8709-22cd51d8e90b","reportUrl":"https://her.reykjavik.is/embed/ec9ebbdc-ae01-5245-8709-22cd51d8e90b/","lat":64.148508,"lng":-21.941696},{"name":"Pure Deli","kt":"5010171080","street":"Suðurlandsbraut 48","postnr":"108","city":"Reykjavík","rating":3,"ratingLabel":"Frávik / ábendingar","lastInspection":"24. júlí 2024","lastInspectionISO":"2024-07-24","uuid":"96a2e7e0-346a-5764-af2c-0da44989947d","reportUrl":"https://her.reykjavik.is/embed/96a2e7e0-346a-5764-af2c-0da44989947d/","lat":64.130875,"lng":-21.866528},{"name":"Grandi mathöll - Grandagarður 16","kt":"6509130350","street":"Grandagarði 16","postnr":"101","city":"Reykjavík","rating":3,"ratingLabel":"Frávik / ábendingar","lastInspection":"3. júlí 2024","lastInspectionISO":"2024-07-03","uuid":"9cdda9eb-98a1-5c95-8b1f-de19b0f1be97","reportUrl":"https://her.reykjavik.is/embed/9cdda9eb-98a1-5c95-8b1f-de19b0f1be97/","lat":64.154558,"lng":-21.944096},